{"Region":{"Id":0,"Envelope":null,"Borders":null,"AdditionalBorders":null,"Location":null,"LocationCordinate":null,"RegionLevel":-1,"EntityType":null},"Items":[{"FId":"6-1","Label":"Wiener Schnitzel","EntityId":6,"EntityType":1,"Image":"/Images/Dishes/fb441da05fd64d00bbdbbe0deaf335b1.png","UrlLink":"wiener-schnitzel","Location":{"Latitude":48.2002170610035,"Longitude":16.3669899384627},"OrderBy":206632},{"FId":"7-1","Label":"Tafelspitz","EntityId":7,"EntityType":1,"Image":"/Images/Dishes/88e3e2a7fcc84e97a2e39c9611ef3781.png","UrlLink":"tafelspitz","Location":{"Latitude":48.2006103869372,"Longitude":16.36630254048},"OrderBy":86240},{"FId":"8-1","Label":"Sachertorte","EntityId":8,"EntityType":1,"Image":"/images/dishes/d953a95ccda442a1ae272f515781c228.png","UrlLink":"sachertorte","Location":{"Latitude":48.18603515625,"Longitude":16.3641357421875},"OrderBy":69650},{"FId":"9-1","Label":"Apfelstrudel","EntityId":9,"EntityType":1,"Image":"/Images/Dishes/3ccd4836ed964fdba5a31c4e2ab1a83f.png","UrlLink":"apfelstrudel","Location":{"Latitude":48.1999486531141,"Longitude":16.3666907952915},"OrderBy":162810},{"FId":"11-1","Label":"Qofte fërguara","EntityId":11,"EntityType":1,"Image":"/Images/Dishes/c9a8b3887c3b4def85fed822c4cabaeb.png","UrlLink":"qofte-ferguara","Location":{"Latitude":41.3269438309381,"Longitude":19.8184146013028},"OrderBy":3600},{"FId":"12-1","Label":"Tavë kosi","EntityId":12,"EntityType":1,"Image":"/images/dishes/06306509fdca4524bd5fc1a75834ccfb.png","UrlLink":"tave-kosi","Location":{"Latitude":41.1215069969805,"Longitude":20.0838279937515},"OrderBy":5400},{"FId":"13-1","Label":"Beaver Tails","EntityId":13,"EntityType":1,"Image":"/Images/Dishes/90eaa49f49d14d3cbd46db600c17314f.png","UrlLink":"beaver-tails","Location":{"Latitude":45.4201941936472,"Longitude":-75.6868430236255},"OrderBy":7827},{"FId":"14-1","Label":"Butter Tarts","EntityId":14,"EntityType":1,"Image":"/Images/Dishes/f3490e428f784958b582c97834a62557.png","UrlLink":"butter-tarts","Location":{"Latitude":45.4222051920594,"Longitude":-75.6905896205953},"OrderBy":11400},{"FId":"15-1","Label":"Kraft Dinner","EntityId":15,"EntityType":1,"Image":"/Images/Dishes/bbff2baa3996456aaac1ab82c54b512f.png","UrlLink":"kraft-dinner","Location":{"Latitude":45.4214842076622,"Longitude":-75.6930008959669},"OrderBy":0},{"FId":"16-1","Label":"Montreal Smoked Meat","EntityId":16,"EntityType":1,"Image":"/Images/Dishes/b6df03e8db844a0c8f67f68924ab72bf.png","UrlLink":"montreal-smoked-meat","Location":{"Latitude":45.5002091417872,"Longitude":-73.5818283856469},"OrderBy":55700},{"FId":"17-1","Label":"Nanaimo Bars","EntityId":17,"EntityType":1,"Image":"/Images/Dishes/d5016d8dd5554393ac0b504c731b1808.png","UrlLink":"nanaimo-bars","Location":{"Latitude":49.1460199991584,"Longitude":-123.934291003578},"OrderBy":7800},{"FId":"18-1","Label":"Pancakes with Maple Syrup","EntityId":18,"EntityType":1,"Image":"/Images/Dishes/dfbb61a5cd0742778a063902b6b7950f.png","UrlLink":"pancakes-with-maple-syrup","Location":{"Latitude":45.4194599465916,"Longitude":-75.6921641209997},"OrderBy":52200},{"FId":"19-1","Label":"Pemmican","EntityId":19,"EntityType":1,"Image":"/Images/Dishes/9428733441cb4fcf998b907b54808d82.png","UrlLink":"pemmican","Location":{"Latitude":45.4211874473575,"Longitude":-75.6914615399667},"OrderBy":6000},{"FId":"20-1","Label":"Saskatoon Berry Pie","EntityId":20,"EntityType":1,"Image":"/Images/Dishes/00b61f54cb67492387301c7a17ded381.png","UrlLink":"saskatoon-berry-pie","Location":{"Latitude":52.1717194668107,"Longitude":-106.668440434418},"OrderBy":7050},{"FId":"21-1","Label":"Timbits","EntityId":21,"EntityType":1,"Image":"/Images/Dishes/b51be56e62a04fd789a9fcee805c634c.png","UrlLink":"timbits","Location":{"Latitude":45.4209127777183,"Longitude":-75.6913472876055},"OrderBy":1200},{"FId":"22-1","Label":"Ćevapi","EntityId":22,"EntityType":1,"Image":"/images/dishes/4bf54db5ff48402499e604d495b4902f.png","UrlLink":"cevapi","Location":{"Latitude":43.8516801246343,"Longitude":18.3813811313947},"OrderBy":164036},{"FId":"23-1","Label":"Tourtière","EntityId":23,"EntityType":1,"Image":"/images/dishes/42b81e012ab24b479df1c57d5d476728.png","UrlLink":"tourtiere","Location":{"Latitude":46.825936383544,"Longitude":-71.2353654950204},"OrderBy":9800},{"FId":"24-1","Label":"Burek","EntityId":24,"EntityType":1,"Image":"/images/dishes/da19513df92d4d00843d84a16d1c6917.png","UrlLink":"burek","Location":{"Latitude":43.8523724949715,"Longitude":18.3870837806876},"OrderBy":40920},{"FId":"25-1","Label":"Poutine","EntityId":25,"EntityType":1,"Image":"/Images/Dishes/d77b248723cd4df78f526dcc21b35529.png","UrlLink":"poutine","Location":{"Latitude":46.8253005853873,"Longitude":-71.2337116210592},"OrderBy":177252},{"FId":"26-1","Label":"Cachupa","EntityId":26,"EntityType":1,"Image":"/Images/Dishes/631c13aa7463471a85ca61f118654a1b.png","UrlLink":"cachupa","Location":{"Latitude":14.9176071505187,"Longitude":-23.5088784102309},"OrderBy":2200},{"FId":"27-1","Label":"Peanut and Squash Stew","EntityId":27,"EntityType":1,"Image":"/Images/Dishes/ddf2d2cad9b74dd78673ec906d82764e.png","UrlLink":"peanut-and-squash-stew","Location":{"Latitude":12.1161195106601,"Longitude":15.061558819373},"OrderBy":0},{"FId":"28-1","Label":"Porotos granados","EntityId":28,"EntityType":1,"Image":"/images/dishes/e2bce409a9b7463b97c662e223ecd743.png","UrlLink":"porotos-granados","Location":{"Latitude":-33.4439534780681,"Longitude":-70.6432445462261},"OrderBy":600},{"FId":"29-1","Label":"Afelia","EntityId":29,"EntityType":1,"Image":"/images/dishes/3d95bc4ed471457793eb1c9c163eedcb.png","UrlLink":"afelia","Location":{"Latitude":35.1730109677731,"Longitude":33.3653365410471},"OrderBy":800},{"FId":"31-1","Label":"Sheftalia","EntityId":31,"EntityType":1,"Image":"/images/dishes/9e10ec89829e44d883e59fcc1447c833.png","UrlLink":"sheftalia","Location":{"Latitude":35.173019923889,"Longitude":33.3650169905513},"OrderBy":3000},{"FId":"32-1","Label":"Souvla","EntityId":32,"EntityType":1,"Image":"/images/dishes/1d2046bb56a146389161623d84575c8c.png","UrlLink":"souvla","Location":{"Latitude":35.1730228194295,"Longitude":33.3643359916342},"OrderBy":14440},{"FId":"34-1","Label":"Smažený sýr","EntityId":34,"EntityType":1,"Image":"/images/dishes/14038aeac424402298a096167d396953.png","UrlLink":"smazeny-syr","Location":{"Latitude":50.0865225791213,"Longitude":14.4217237507661},"OrderBy":20027},{"FId":"35-1","Label":"Svíčková","EntityId":35,"EntityType":1,"Image":"/images/dishes/ad885f755f554851bfb5f79b565ebf4a.png","UrlLink":"svickova","Location":{"Latitude":50.0861515485664,"Longitude":14.4220125732266},"OrderBy":39690},{"FId":"36-1","Label":"Vepřo knedlo zelo","EntityId":36,"EntityType":1,"Image":"/images/dishes/170fba92aa4b4cde894066be6aa97d47.png","UrlLink":"vepro-knedlo-zelo","Location":{"Latitude":50.0867918591198,"Longitude":14.4190599737402},"OrderBy":2400},{"FId":"40-1","Label":"English Breakfast","EntityId":40,"EntityType":1,"Image":"/Images/Dishes/3532b4eea6114db7ac9f1df1d7dd7556.png","UrlLink":"english-breakfast","Location":{"Latitude":51.5071445237495,"Longitude":-0.127758213551637},"OrderBy":220827},{"FId":"41-1","Label":"Currywurst","EntityId":41,"EntityType":1,"Image":"/images/dishes/3237b697f1d24392a9a896047c1ad0ea.png","UrlLink":"currywurst","Location":{"Latitude":52.5169406266873,"Longitude":13.3963734334181},"OrderBy":90410},{"FId":"42-1","Label":"Sauerbraten","EntityId":42,"EntityType":1,"Image":"/Images/Dishes/573f321b0a96410a96610583f3fd5017.png","UrlLink":"sauerbraten","Location":{"Latitude":52.5165227824851,"Longitude":13.3939701741408},"OrderBy":38600},{"FId":"43-1","Label":"Wurst","EntityId":43,"EntityType":1,"Image":"/Images/Dishes/4e4af79cbfe34f62b66daa730a001745.png","UrlLink":"wurst","Location":{"Latitude":52.5165227824851,"Longitude":13.3905369466017},"OrderBy":268810},{"FId":"44-1","Label":"Gruenkohl und Pinkel","EntityId":44,"EntityType":1,"Image":"/Images/Dishes/854ce49d34ce4c02aeb70131fd414e95.png","UrlLink":"grunkohl-und-pinkel","Location":{"Latitude":52.5159815544172,"Longitude":13.3878174990254},"OrderBy":1200},{"FId":"45-1","Label":"Dampfnudeln","EntityId":45,"EntityType":1,"Image":"/images/dishes/f3f775b456364b0697fb43ce43b01527.png","UrlLink":"dampfnudel","Location":{"Latitude":48.1388363079803,"Longitude":11.5771061604689},"OrderBy":16000},{"FId":"46-1","Label":"Pasta carbonara","EntityId":46,"EntityType":1,"Image":"/Images/Dishes/7c0ff563d8bd41fb85400b0b4d8b04d3.png","UrlLink":"carbonara","Location":{"Latitude":41.8960007166743,"Longitude":12.4849694614038},"OrderBy":203788},{"FId":"47-1","Label":"Jellied Eels","EntityId":47,"EntityType":1,"Image":"/Images/Dishes/bb6b6f94115646ab9c9a63c4e0a87d62.png","UrlLink":"jellied-eels","Location":{"Latitude":51.5006923314837,"Longitude":-0.117108079395688},"OrderBy":2800},{"FId":"48-1","Label":"Schwarzwälder Kirschtorte","EntityId":48,"EntityType":1,"Image":"/Images/Dishes/e062f7934d4c4c889e04e1d9a473e686.png","UrlLink":"schwarzwalder-kirschtorte","Location":{"Latitude":48.300555068246723,"Longitude":8.2319538359374977},"OrderBy":20800},{"FId":"49-1","Label":"Schwäbische Maultaschen","EntityId":49,"EntityType":1,"Image":"/Images/Dishes/5f5736829956406fb4a7f614b9ac9b80.png","UrlLink":"maultaschen","Location":{"Latitude":48.7791446571885,"Longitude":9.17934004718766},"OrderBy":8076},{"FId":"50-1","Label":"Kippers","EntityId":50,"EntityType":1,"Image":"/Images/Dishes/d964823c10f64a72a32aaba028c356b5.png","UrlLink":"kippers","Location":{"Latitude":54.1493661377476,"Longitude":-4.47933197021484},"OrderBy":3000},{"FId":"51-1","Label":"Fondue","EntityId":51,"EntityType":1,"Image":"/Images/Dishes/a8b9eda263de45428251f7e31f5636bf.png","UrlLink":"fondue","Location":{"Latitude":46.9478609459602,"Longitude":7.45244238889282},"OrderBy":290042},{"FId":"52-1","Label":"Raclette","EntityId":52,"EntityType":1,"Image":"/images/dishes/f722ef0ec7304adea0fa49b2943d55c0.png","UrlLink":"raclette","Location":{"Latitude":46.2310416622762,"Longitude":7.35872197148737},"OrderBy":110410},{"FId":"53-1","Label":"Rösti","EntityId":53,"EntityType":1,"Image":"/Images/Dishes/af86d84166ef416abc34fd9257d00fd1.png","UrlLink":"rosti","Location":{"Latitude":46.9482041634996,"Longitude":7.45081812791877},"OrderBy":77800},{"FId":"54-1","Label":"Bacalhau","EntityId":54,"EntityType":1,"Image":"/images/dishes/f1f12baa923b4e4ab6a95323bed80627.png","UrlLink":"bacalhau","Location":{"Latitude":38.7096325588188,"Longitude":-9.13666692827121},"OrderBy":156060},{"FId":"55-1","Label":"Caldo verde","EntityId":55,"EntityType":1,"Image":"/images/dishes/228d0ff8aec4415082ae4caaf3be7fbf.png","UrlLink":"caldo-verde","Location":{"Latitude":41.5506739230981,"Longitude":-8.42771188808455},"OrderBy":33600},{"FId":"56-1","Label":"Pastel de nata","EntityId":56,"EntityType":1,"Image":"/Images/Dishes/8ca286083006444c97aaa810d7a4d221.png","UrlLink":"pastel-de-nata","Location":{"Latitude":38.707524717256007,"Longitude":-9.1371347393899445},"OrderBy":92292},{"FId":"57-1","Label":"Aloo paratha","EntityId":57,"EntityType":1,"Image":"/images/dishes/3932669b67874742aaffeb1cbe2fd5b8.png","UrlLink":"aloo-paratha","Location":{"Latitude":30.7215976473602,"Longitude":76.7633843356227},"OrderBy":5600},{"FId":"58-1","Label":"Chutney","EntityId":58,"EntityType":1,"Image":"/Images/Dishes/9488655608f34ebca6f10e404c68c217.png","UrlLink":"chutney","Location":{"Latitude":28.6129032581699,"Longitude":77.2178319900569},"OrderBy":53000},{"FId":"59-1","Label":"Lancashire Hotpot","EntityId":59,"EntityType":1,"Image":"/Images/Dishes/2931420e290e472599fe965de5c470d6.png","UrlLink":"lancashire-hotpot","Location":{"Latitude":54.0478671198321,"Longitude":-2.7988913921382},"OrderBy":9000},{"FId":"60-1","Label":"Onion Samosa","EntityId":60,"EntityType":1,"Image":"/Images/Dishes/f4813d5e9b1847b0b4cb7687d9386dee.png","UrlLink":"onion-samosa","Location":{"Latitude":28.6135849828198,"Longitude":77.2188471074515},"OrderBy":0},{"FId":"61-1","Label":"Curd Rice","EntityId":61,"EntityType":1,"Image":"/images/dishes/81c57dfb4f754b42af0da6ff9ec5477e.png","UrlLink":"curd-rice","Location":{"Latitude":12.9743747435779,"Longitude":77.5974933233438},"OrderBy":0},{"FId":"62-1","Label":"Makki di roti","EntityId":62,"EntityType":1,"Image":"/Images/Dishes/3b8c3a636f884663925c59159bea83b1.png","UrlLink":"makki-di-roti","Location":{"Latitude":30.7184670596587,"Longitude":76.7666522588907},"OrderBy":4800},{"FId":"64-1","Label":"Pork Pie","EntityId":64,"EntityType":1,"Image":"/Images/Dishes/d047addd40d84a88ab142420620e3c95.png","UrlLink":"pork-pie","Location":{"Latitude":51.5071442164176,"Longitude":-0.128347359536342},"OrderBy":19800},{"FId":"65-1","Label":"Dal","EntityId":65,"EntityType":1,"Image":"/Images/Dishes/41a3459364d340e299ad66311cc563fb.png","UrlLink":"dal","Location":{"Latitude":12.9709345120257,"Longitude":77.5971904267904},"OrderBy":800},{"FId":"66-1","Label":"Naan","EntityId":66,"EntityType":1,"Image":"/images/dishes/f725824c3c924c85abc45084c95c982f.png","UrlLink":"naan","Location":{"Latitude":28.6088181524601,"Longitude":77.2131842351518},"OrderBy":34600},{"FId":"67-1","Label":"Paratha","EntityId":67,"EntityType":1,"Image":"/images/dishes/999f42bba2d040ac9609a608b17568ac.png","UrlLink":"paratha","Location":{"Latitude":28.6138622505446,"Longitude":77.2180347250244},"OrderBy":21400},{"FId":"68-1","Label":"Pesara dosa","EntityId":68,"EntityType":1,"Image":"/Images/Dishes/0e082bbe792b4357afbc0f5a0fe3b3af.png","UrlLink":"pesara-dosa","Location":{"Latitude":17.3640129815218,"Longitude":78.4727366175312},"OrderBy":13000},{"FId":"69-1","Label":"Pulihora","EntityId":69,"EntityType":1,"Image":"/Images/Dishes/c23a82ecbda843c7af720ae0aa32b500.png","UrlLink":"pulihora","Location":{"Latitude":17.3628230558371,"Longitude":78.4699146126146},"OrderBy":0},{"FId":"70-1","Label":"Puran poli","EntityId":70,"EntityType":1,"Image":"/Images/Dishes/4b354e5ac3b14173a07c0131e90f92c2.png","UrlLink":"puran-poli","Location":{"Latitude":12.9686999101095,"Longitude":77.5892535772502},"OrderBy":7200},{"FId":"71-1","Label":"Sakkarai pongal","EntityId":71,"EntityType":1,"Image":"/Images/Dishes/d5c1398229d3402cb9ab097a1bd1c282.png","UrlLink":"sakkarai-pongal","Location":{"Latitude":13.0807708526617,"Longitude":80.2857794549298},"OrderBy":11400},{"FId":"72-1","Label":"Sarson da saag","EntityId":72,"EntityType":1,"Image":"/images/dishes/bb0b9df0f4fb4ae2ba6afff12913cb59.png","UrlLink":"sarson-da-saag","Location":{"Latitude":31.6409494997715,"Longitude":74.8799713625371},"OrderBy":23000},{"FId":"73-1","Label":"Samosa","EntityId":73,"EntityType":1,"Image":"/Images/Dishes/fff3a524127044269dedba385d0b6142.png","UrlLink":"samosa","Location":{"Latitude":28.6172628324696,"Longitude":77.2157184210001},"OrderBy":31630},{"FId":"75-1","Label":"Sunday Roast","EntityId":75,"EntityType":1,"Image":"/Images/Dishes/a0f80aad6cdc42c88999aad355a1edfa.png","UrlLink":"sunday-roast-beef","Location":{"Latitude":51.5068499279482,"Longitude":-0.126868302909679},"OrderBy":119286},{"FId":"76-1","Label":"Ciabatta","EntityId":76,"EntityType":1,"Image":"/Images/Dishes/9cfdd4e7c807406c8a14dcc31a44e7a8.png","UrlLink":"ciabatta","Location":{"Latitude":45.4404170486884,"Longitude":10.9901314984785},"OrderBy":5800},{"FId":"77-1","Label":"Minestrone","EntityId":77,"EntityType":1,"Image":"/Images/Dishes/b2bcc0ebcd9a41a2beb426bff0857a86.png","UrlLink":"minestrone","Location":{"Latitude":41.8929923891351,"Longitude":12.4841931819768},"OrderBy":35800},{"FId":"80-1","Label":"Amatriciana","EntityId":80,"EntityType":1,"Image":"/images/dishes/01ff6058338b49df9b68909c2c972b9f.png","UrlLink":"amatriciana","Location":{"Latitude":42.6292367143024,"Longitude":13.2891754877046},"OrderBy":125200},{"FId":"81-1","Label":"Trofie al pesto","EntityId":81,"EntityType":1,"Image":"/Images/Dishes/95609ea36cef4bbba77bfba89859a11d.png","UrlLink":"trofie-al-pesto","Location":{"Latitude":44.4072729865844,"Longitude":8.93457750646409},"OrderBy":46440},{"FId":"82-1","Label":"Pasta chî sàrdi","EntityId":82,"EntityType":1,"Image":"/Images/Dishes/6ff33f47deaf45b2a96ea55cf2bf4b92.png","UrlLink":"pasta-chi-sardi","Location":{"Latitude":38.1243540130229,"Longitude":13.3505880606062},"OrderBy":51400},{"FId":"83-1","Label":"Bigoli in salsa","EntityId":83,"EntityType":1,"Image":"/Images/Dishes/e5abae411bf24af986e7ce491559795e.png","UrlLink":"bigoli-in-salsa","Location":{"Latitude":45.4387383249001,"Longitude":12.3351594799169},"OrderBy":23000},{"FId":"84-1","Label":"Gnocchi alla Sorrentina","EntityId":84,"EntityType":1,"Image":"/Images/Dishes/194c264626934fce9374801d74069357.png","UrlLink":"gnocchi-alla-sorrentina","Location":{"Latitude":40.6250347355019,"Longitude":14.3747236813379},"OrderBy":3030},{"FId":"85-1","Label":"Cacio e pepe","EntityId":85,"EntityType":1,"Image":"/Images/Dishes/e540511815514282a8e10ee5e3e7eda9.png","UrlLink":"cacio-e-pepe","Location":{"Latitude":41.8959560081167,"Longitude":12.4832579972595},"OrderBy":223726},{"FId":"86-1","Label":"Spaghetti alle vongole","EntityId":86,"EntityType":1,"Image":"/Images/Dishes/96daf8a67f98487d82e27107c80fcc75.png","UrlLink":"spaghetti-alle-vongole","Location":{"Latitude":40.8363890854056,"Longitude":14.2493748329174},"OrderBy":92030},{"FId":"89-1","Label":"Ciceri e tria","EntityId":89,"EntityType":1,"Image":"/Images/Dishes/19b512c41ed14b3fb44779e04a667ea0.png","UrlLink":"ciceri-e-tria","Location":{"Latitude":40.3583364034765,"Longitude":18.1723569274391},"OrderBy":12800},{"FId":"90-1","Label":"Pasta alla Norma","EntityId":90,"EntityType":1,"Image":"/Images/Dishes/8d9e1724f0a0497eb57dc0cd9cb46afe.png","UrlLink":"pasta-alla-norma","Location":{"Latitude":37.4999710042076,"Longitude":15.0799989902437},"OrderBy":34200},{"FId":"91-1","Label":"Spaghetti alla puttanesca","EntityId":91,"EntityType":1,"Image":"/Images/Dishes/7f9e16d1ecf641b3b15b141db8d11af8.png","UrlLink":"puttanesca","Location":{"Latitude":40.733512272931,"Longitude":13.9479891496254},"OrderBy":15800},{"FId":"92-1","Label":"Spaghetti aglio e olio","EntityId":92,"EntityType":1,"Image":"/Images/Dishes/b8a56ed2065c438f8f1d2d9d1eb03eec.png","UrlLink":"aglio-e-olio","Location":{"Latitude":41.8924890491132,"Longitude":12.4911299745743},"OrderBy":14000},{"FId":"93-1","Label":"Yorkshire Pudding","EntityId":93,"EntityType":1,"Image":"/Images/Dishes/7169d089572b43779f27a2795ddf19b8.png","UrlLink":"yorkshire-pudding","Location":{"Latitude":53.9588170693241,"Longitude":-1.08053544815632},"OrderBy":347800},{"FId":"94-1","Label":"Pasta alla gricia","EntityId":94,"EntityType":1,"Image":"/Images/Dishes/6f10673963da416a91653d27a8a024d1.png","UrlLink":"pastaallagricia","Location":{"Latitude":42.7338658075487,"Longitude":13.2681275014418},"OrderBy":33000},{"FId":"95-1","Label":"Trenette al pesto","EntityId":95,"EntityType":1,"Image":"/Images/Dishes/b9f8f14182984751916f0a03e8fd4f38.png","UrlLink":"trenette-al-pesto","Location":{"Latitude":44.4068421229361,"Longitude":8.93605637002706},"OrderBy":31200},{"FId":"96-1","Label":"Linguine allo scoglio","EntityId":96,"EntityType":1,"Image":"/Images/Dishes/28c092bc1eb140fe90e4e043532f6e0f.png","UrlLink":"linguine-allo-scoglio","Location":{"Latitude":40.8356520783045,"Longitude":14.2505983847344},"OrderBy":18600},{"FId":"97-1","Label":"Fish and Chips","EntityId":97,"EntityType":1,"Image":"/Images/Dishes/4c03880526bf47129c76b92071c1dd1e.png","UrlLink":"fish-and-chips","Location":{"Latitude":51.5072283833507,"Longitude":-0.126447703914737},"OrderBy":1586094},{"FId":"98-1","Label":"Tagliatelle al ragù alla Bolognese","EntityId":98,"EntityType":1,"Image":"/Images/Dishes/04fcac43cce44607802afc893a75a0c7.png","UrlLink":"bolognese","Location":{"Latitude":44.5004998988071,"Longitude":11.3392622210418},"OrderBy":196250},{"FId":"99-1","Label":"Polenta","EntityId":99,"EntityType":1,"Image":"/Images/Dishes/e04907c447bc44c8a89706b562638a0d.png","UrlLink":"polenta","Location":{"Latitude":41.8945071276257,"Longitude":12.4889198673654},"OrderBy":80810},{"FId":"100-1","Label":"Pizza Napoletana","EntityId":100,"EntityType":1,"Image":"/images/dishes/7de6337184094547aa43810c68ccbb9d.png","UrlLink":"pizza-napoletana","Location":{"Latitude":40.840025008795,"Longitude":14.2450110002013},"OrderBy":849490},{"FId":"103-1","Label":"Lasagne alla Bolognese","EntityId":103,"EntityType":1,"Image":"/images/dishes/d4dc20ca1f954dab8d4a93fc76f4f36f.png","UrlLink":"lasagne-bolognese","Location":{"Latitude":44.4999863970417,"Longitude":11.3423117839752},"OrderBy":108030},{"FId":"104-1","Label":"Agnolotti","EntityId":104,"EntityType":1,"Image":"/images/dishes/595098dfcbbb41c78bd5153342a61736.png","UrlLink":"agnolotti","Location":{"Latitude":45.0674338920998,"Longitude":7.68259095590735},"OrderBy":2240},{"FId":"105-1","Label":"Grissini","EntityId":105,"EntityType":1,"Image":"/images/dishes/0ed1f8745e7e43408e56421d715f96cc.png","UrlLink":"grissini","Location":{"Latitude":45.0705744385644,"Longitude":7.67006314266572},"OrderBy":33800},{"FId":"106-1","Label":"Gianduiotto","EntityId":106,"EntityType":1,"Image":"/Images/Dishes/7223ca5bacb54a7bbe9eff91eec2fd45.png","UrlLink":"gianduiotto","Location":{"Latitude":45.0703870135116,"Longitude":7.6699600009262},"OrderBy":56400},{"FId":"107-1","Label":"Gnocchi di semolino alla Romana","EntityId":107,"EntityType":1,"Image":"/images/dishes/ff1faf29240442d387307a723661ea06.png","UrlLink":"gnocchi-di-semolino-alla-romana","Location":{"Latitude":41.8368278607271,"Longitude":12.469482421875},"OrderBy":6800},{"FId":"109-1","Label":"Stracciatella alla Romana","EntityId":109,"EntityType":1,"Image":"/images/dishes/f16a444a58704b648f3a1ded613cd8f0.png","UrlLink":"stracciatella-alla-romana-1","Location":{"Latitude":41.8926624078817,"Longitude":12.483516170379},"OrderBy":4800},{"FId":"110-1","Label":"Panettone","EntityId":110,"EntityType":1,"Image":"/Images/Dishes/3a433153b5784c8899beb5d3678213a5.png","UrlLink":"panettone","Location":{"Latitude":45.4667634433907,"Longitude":9.19123718292553},"OrderBy":68000},{"FId":"111-1","Label":"Risotto alla Milanese","EntityId":111,"EntityType":1,"Image":"/images/dishes/bcf4838f75654ad582a5a9009885dddd.png","UrlLink":"risotto-alla-milanese","Location":{"Latitude":45.4667634378925,"Longitude":9.19123719910704},"OrderBy":77800},{"FId":"112-1","Label":"Ossobuco alla Milanese","EntityId":112,"EntityType":1,"Image":"/images/dishes/2f2c39667c9648238aebeb2ee3c718ae.png","UrlLink":"ossobuco","Location":{"Latitude":45.46676343704,"Longitude":9.19123719215897},"OrderBy":88400},{"FId":"115-1","Label":"Pane carasau","EntityId":115,"EntityType":1,"Image":"/Images/Dishes/1269c36a88bd4b0180fe0718f948a661.png","UrlLink":"pane-carasau","Location":{"Latitude":39.2225390981099,"Longitude":9.10414202715719},"OrderBy":5800},{"FId":"116-1","Label":"Arancini","EntityId":116,"EntityType":1,"Image":"/images/dishes/946ee1b162e4445aa6f85e24ce6bb40f.png","UrlLink":"arancini","Location":{"Latitude":38.1107778801678,"Longitude":13.3552965135222},"OrderBy":43040},{"FId":"117-1","Label":"Caponata","EntityId":117,"EntityType":1,"Image":"/images/dishes/a14e3b8ada3c411e9ab1f5a462a958ef.png","UrlLink":"caponata","Location":{"Latitude":38.1092179026433,"Longitude":13.3546403033754},"OrderBy":50060},{"FId":"118-1","Label":"Ribollita","EntityId":118,"EntityType":1,"Image":"/images/dishes/37641e258564489dbc6972d1c610e2df.png","UrlLink":"ribollita","Location":{"Latitude":43.7692502679661,"Longitude":11.2537005019922},"OrderBy":152480},{"FId":"119-1","Label":"Bistecca alla Fiorentina","EntityId":119,"EntityType":1,"Image":"/images/dishes/8f389b704da6419cb003a1dee205b4e4.png","UrlLink":"fiorentina","Location":{"Latitude":43.7696314683346,"Longitude":11.2554007308491},"OrderBy":525680},{"FId":"120-1","Label":"Risi e bisi","EntityId":120,"EntityType":1,"Image":"/Images/Dishes/a90641aa318f4b09a82ef146d126d63d.png","UrlLink":"risi-e-bisi","Location":{"Latitude":45.4368497097935,"Longitude":12.3339164896915},"OrderBy":0},{"FId":"123-1","Label":"Beef bourguignon","EntityId":123,"EntityType":1,"Image":"/Images/Dishes/712dd60724b9412ebb0bb285ae523dfa.png","UrlLink":"beef-bourguignon","Location":{"Latitude":47.3219657273124,"Longitude":5.0423434793246},"OrderBy":72430},{"FId":"124-1","Label":"Bouillabaisse","EntityId":124,"EntityType":1,"Image":"/Images/Dishes/9893b09dd0e044ad8149aed5cc6f42d9.png","UrlLink":"bouillabaisse","Location":{"Latitude":43.2899790130047,"Longitude":5.37500999536527},"OrderBy":97800},{"FId":"125-1","Label":"Cassoulet","EntityId":125,"EntityType":1,"Image":"/Images/Dishes/b9d6fd66531e44319535a7ccab6d65f9.png","UrlLink":"cassoulet","Location":{"Latitude":43.6109954383474,"Longitude":3.87501382691324},"OrderBy":65054},{"FId":"126-1","Label":"Coq au vin","EntityId":126,"EntityType":1,"Image":"/Images/Dishes/5c724e0b63db4425b084384e1f4710fe.png","UrlLink":"coq-au-vin","Location":{"Latitude":47.3209083314083,"Longitude":5.04238064730008},"OrderBy":40200},{"FId":"127-1","Label":"Crêpes","EntityId":127,"EntityType":1,"Image":"/Images/Dishes/ca70fbe9354f4b40a512724d960fd5c9.png","UrlLink":"crepes","Location":{"Latitude":48.1108714709048,"Longitude":-1.67547094442286},"OrderBy":568664},{"FId":"128-1","Label":"Foie gras","EntityId":128,"EntityType":1,"Image":"/Images/Dishes/6915435887a9423da5630cfa92663787.png","UrlLink":"foie-gras","Location":{"Latitude":48.8559184355198,"Longitude":2.35159691642736},"OrderBy":168800},{"FId":"129-1","Label":"Galette de Bretagne","EntityId":129,"EntityType":1,"Image":"/images/dishes/3f3b24051df9439ca0504c64c0f7af8d.png","UrlLink":"galette-de-bretagne","Location":{"Latitude":48.1097236270229,"Longitude":-1.67678833007813},"OrderBy":158254},{"FId":"130-1","Label":"Pot-au-feu","EntityId":130,"EntityType":1,"Image":"/Images/Dishes/999a4ebacb684ae3a1cb9b24a3a4e953.png","UrlLink":"pot-au-feu","Location":{"Latitude":48.5838482699601,"Longitude":7.74960050721287},"OrderBy":9600},{"FId":"131-1","Label":"Quiche Lorraine","EntityId":131,"EntityType":1,"Image":"/images/dishes/97224406f7c040a4b31a4bfad5d1ff48.png","UrlLink":"quiche-lorraine","Location":{"Latitude":49.1196375558677,"Longitude":6.17727168714178},"OrderBy":19800},{"FId":"132-1","Label":"Ratatouille","EntityId":132,"EntityType":1,"Image":"/images/dishes/3ebacd33fffc4b49abb63bb1a9914805.png","UrlLink":"ratatouille","Location":{"Latitude":43.2947672356461,"Longitude":5.37699577183642},"OrderBy":36200},{"FId":"133-1","Label":"Salade Niçoise","EntityId":133,"EntityType":1,"Image":"/Images/Dishes/061facd8ad834bf49863865626740829.png","UrlLink":"salade-nicoise","Location":{"Latitude":43.7151625049225,"Longitude":7.26509571075439},"OrderBy":12600},{"FId":"134-1","Label":"Tarte flambée","EntityId":134,"EntityType":1,"Image":"/Images/Dishes/27cda29ec44343149bbcbd77f1075208.png","UrlLink":"tarte-flambee","Location":{"Latitude":48.5845567055624,"Longitude":7.75016784667969},"OrderBy":45876},{"FId":"137-1","Label":"Boston Baked Beans","EntityId":137,"EntityType":1,"Image":"/Images/Dishes/62a8f55361584060a4172b970d0813f1.png","UrlLink":"baked-beans","Location":{"Latitude":42.3346818361859,"Longitude":-71.0740608657361},"OrderBy":17800},{"FId":"138-1","Label":"New England Clam Chowder","EntityId":138,"EntityType":1,"Image":"/images/dishes/c79be9539f844443b47e4c857838ced4.png","UrlLink":"new-england-clam-chowder","Location":{"Latitude":42.3603417353796,"Longitude":-71.0725241251531},"OrderBy":151000},{"FId":"139-1","Label":"Doughnut","EntityId":139,"EntityType":1,"Image":"/Images/Dishes/9bbbe5a1d78b408c8385a019bc2125e7.png","UrlLink":"doughnut","Location":{"Latitude":38.8937441561909,"Longitude":-77.0356937592115},"OrderBy":389830},{"FId":"140-1","Label":"Burger","EntityId":140,"EntityType":1,"Image":"/images/dishes/a32c3623259d4ddf979988d11a7a7141.png","UrlLink":"burger","Location":{"Latitude":38.8925578015936,"Longitude":-77.0399013697961},"OrderBy":3577272},{"FId":"141-1","Label":"Hot Dog","EntityId":141,"EntityType":1,"Image":"/images/dishes/f8b74e40963a45de959060dec548cb99.png","UrlLink":"hot-dog","Location":{"Latitude":40.750540405166,"Longitude":-73.9799395863773},"OrderBy":1108296},{"FId":"142-1","Label":"Spam","EntityId":142,"EntityType":1,"Image":"/Images/Dishes/91327af215f54ed99711640c2476e971.png","UrlLink":"spam","Location":{"Latitude":38.8969019862941,"Longitude":-77.0374208495695},"OrderBy":18600},{"FId":"143-1","Label":"Thanksgiving Dinner","EntityId":143,"EntityType":1,"Image":"/Images/Dishes/e7b9460ec2ce468ba5771a2538f0b748.png","UrlLink":"thanksgiving-dinner","Location":{"Latitude":38.8951802609583,"Longitude":-77.0367181232452},"OrderBy":18000},{"FId":"144-1","Label":"Arepa","EntityId":144,"EntityType":1,"Image":"/images/dishes/08ba49a625cb42668389c48e935c123c.png","UrlLink":"arepa","Location":{"Latitude":10.5051630443114,"Longitude":-66.9136818899877},"OrderBy":115800},{"FId":"145-1","Label":"Asado negro","EntityId":145,"EntityType":1,"Image":"/Images/Dishes/b670b07104b54974b18d4a3d73bbcf01.png","UrlLink":"asado-negro","Location":{"Latitude":10.5061117508138,"Longitude":-66.9157728951266},"OrderBy":9000},{"FId":"146-1","Label":"Buñuelos de yuca","EntityId":146,"EntityType":1,"Image":"/images/dishes/76e6379fe57448618d7da865d919ea67.png","UrlLink":"bunuelos-de-yuca","Location":{"Latitude":10.5060044477625,"Longitude":-66.9148718807284},"OrderBy":0},{"FId":"147-1","Label":"Cachapa","EntityId":147,"EntityType":1,"Image":"/Images/Dishes/0b8d31005bc244799049dbfbd1c91aad.png","UrlLink":"cachapa","Location":{"Latitude":10.5061054219197,"Longitude":-66.9141243042377},"OrderBy":20000},{"FId":"148-1","Label":"Casabe","EntityId":148,"EntityType":1,"Image":"/images/dishes/f6cf2d17c0d844569f3e881b3d78df60.png","UrlLink":"casabe","Location":{"Latitude":10.5059496822244,"Longitude":-66.9142718893278},"OrderBy":1800},{"FId":"149-1","Label":"Hallaca","EntityId":149,"EntityType":1,"Image":"/images/dishes/ed32b450d15c444890bb43018c7c55e6.png","UrlLink":"hallaca","Location":{"Latitude":10.5011208947751,"Longitude":-66.9135819539013},"OrderBy":0},{"FId":"150-1","Label":"Meat Pie","EntityId":150,"EntityType":1,"Image":"/Images/Dishes/f00fb6a7818845c6888558eaef75ec64.png","UrlLink":"meat-pie","Location":{"Latitude":-35.298216931653,"Longitude":149.10059722588},"OrderBy":361330},{"FId":"151-1","Label":"Vegemite on Toast","EntityId":151,"EntityType":1,"Image":"/images/dishes/7bdd83d02ccc4fdb98acee0f0209b4c6.png","UrlLink":"vegemite-on-toast","Location":{"Latitude":-35.2979119732635,"Longitude":149.105560267744},"OrderBy":0},{"FId":"152-1","Label":"Cocido madrileño","EntityId":152,"EntityType":1,"Image":"/Images/Dishes/a183e4832b14477c90711b070e623656.png","UrlLink":"cocido-madrileno","Location":{"Latitude":40.4172037395667,"Longitude":-3.70187146386314},"OrderBy":47000},{"FId":"153-1","Label":"Tapas","EntityId":153,"EntityType":1,"Image":"/Images/Dishes/63b8798625da4bac9bdcb43a48c1df21.png","UrlLink":"tapas","Location":{"Latitude":40.415696388671,"Longitude":-3.69478346740331},"OrderBy":2022120},{"FId":"154-1","Label":"Paella","EntityId":154,"EntityType":1,"Image":"/Images/Dishes/dae51bd5823a41889f27a63ccfbd323f.png","UrlLink":"paella","Location":{"Latitude":39.470864987166976,"Longitude":-0.4770808582498926},"OrderBy":496280},{"FId":"155-1","Label":"Pljeskavica","EntityId":155,"EntityType":1,"Image":"/Images/Dishes/f0d5af47fbb54fe6a7d0f2d661738dec.png","UrlLink":"pljeskavica","Location":{"Latitude":44.8169429116129,"Longitude":20.4567820637892},"OrderBy":49620},{"FId":"156-1","Label":"Deep-Fried Mars Bar","EntityId":156,"EntityType":1,"Image":"/Images/Dishes/5210234b2066495da13831b3d5d86380.png","UrlLink":"deep-fried-mars-bar","Location":{"Latitude":56.9636212504786,"Longitude":-2.21554752186924},"OrderBy":14650},{"FId":"157-1","Label":"Haggis","EntityId":157,"EntityType":1,"Image":"/Images/Dishes/6566a9bb0c254c55885bf617908554df.png","UrlLink":"haggis","Location":{"Latitude":55.9495866462642,"Longitude":-3.19107011612471},"OrderBy":35460},{"FId":"158-1","Label":"Hutspot","EntityId":158,"EntityType":1,"Image":"/Images/Dishes/d564f77efcad4f2eb230751847b95a47.png","UrlLink":"hutspot","Location":{"Latitude":52.372876067299,"Longitude":4.89269550962243},"OrderBy":2400},{"FId":"159-1","Label":"Stamppot","EntityId":159,"EntityType":1,"Image":"/Images/Dishes/20c9479a8c2b4efa93489d0cffc83aab.png","UrlLink":"stamppot","Location":{"Latitude":52.3718749883522,"Longitude":4.89185145406475},"OrderBy":42774},{"FId":"165-1","Label":"Bánh mì","EntityId":165,"EntityType":1,"Image":"/Images/Dishes/33229db2286444db86621a340682dc04.png","UrlLink":"banh-mi","Location":{"Latitude":21.0283633449876,"Longitude":105.857512672795},"OrderBy":136238},{"FId":"166-1","Label":"Pho","EntityId":166,"EntityType":1,"Image":"/images/dishes/4aa22608c7404f37b1c6c27188a36704.png","UrlLink":"pho","Location":{"Latitude":21.0279042747335,"Longitude":105.857337073203},"OrderBy":188727},{"FId":"167-1","Label":"Chivito","EntityId":167,"EntityType":1,"Image":"/Images/Dishes/2d66f3f31bd14dfd8cd57b243f1104d7.png","UrlLink":"chivito","Location":{"Latitude":-34.9054639997077,"Longitude":-56.191183820232},"OrderBy":64644},{"FId":"168-1","Label":"Yassa","EntityId":168,"EntityType":1,"Image":"/images/dishes/f36c3715e89f473da55d5c54dbf4bf8f.png","UrlLink":"yassa","Location":{"Latitude":14.6947544141217,"Longitude":-17.445962962678},"OrderBy":6630},{"FId":"169-1","Label":"Verivorst","EntityId":169,"EntityType":1,"Image":"/Images/Dishes/76f98ecc03b24b3087c4df4f4c8db8d4.png","UrlLink":"verivorst","Location":{"Latitude":59.4366178526157,"Longitude":24.7482063931978},"OrderBy":0},{"FId":"170-1","Label":"Doro wat","EntityId":170,"EntityType":1,"Image":"/Images/Dishes/3b4626cf8b6648c69b843a0b7b6620ed.png","UrlLink":"doro-wat","Location":{"Latitude":9.01087002260257,"Longitude":38.7639023366255},"OrderBy":1600},{"FId":"171-1","Label":"Injera","EntityId":171,"EntityType":1,"Image":"/images/dishes/efee1a2857a34752a20c159d4cb7aa8d.png","UrlLink":"injera","Location":{"Latitude":8.98717020883898,"Longitude":38.7596309813751},"OrderBy":3000},{"FId":"172-1","Label":"Colcannon","EntityId":172,"EntityType":1,"Image":"/Images/Dishes/4cdda97349b042918bb3427fe07ac345.png","UrlLink":"colcannon","Location":{"Latitude":53.3489509193486,"Longitude":-6.25705383817929},"OrderBy":0},{"FId":"173-1","Label":"Irish Stew","EntityId":173,"EntityType":1,"Image":"/images/dishes/7c0aec1866144a58abcdd91bf73d261a.png","UrlLink":"irish-stew","Location":{"Latitude":53.3502262967382,"Longitude":-6.25998559320541},"OrderBy":50400},{"FId":"175-1","Label":"Stout and Raw Oysters","EntityId":175,"EntityType":1,"Image":"/Images/Dishes/00f5029d25d54d35acb7f7ce7724a5d6.png","UrlLink":"stout-and-raw-oysters","Location":{"Latitude":53.2728582275962,"Longitude":-9.04815121174217},"OrderBy":12000},{"FId":"176-1","Label":"Soda Bread","EntityId":176,"EntityType":1,"Image":"/images/dishes/388e4260d54646f3b6ed982d2ada9a04.png","UrlLink":"soda-bread","Location":{"Latitude":53.3491648520787,"Longitude":-6.25968380451561},"OrderBy":2430},{"FId":"178-1","Label":"Dublin Coddle","EntityId":178,"EntityType":1,"Image":"/Images/Dishes/205b7652085c4425bee4979c286ef617.png","UrlLink":"dublin-coddle","Location":{"Latitude":53.3493378554782,"Longitude":-6.25888512807435},"OrderBy":46400},{"FId":"179-1","Label":"Jollof Rice","EntityId":179,"EntityType":1,"Image":"/images/dishes/9900397a46b743ad973c9e55dcd1501d.png","UrlLink":"jollof-rice","Location":{"Latitude":9.06344097847673,"Longitude":7.49222538209389},"OrderBy":3408},{"FId":"180-1","Label":"Green Fig and Saltfish ","EntityId":180,"EntityType":1,"Image":"/Images/Dishes/41947db5d20645c5ba7951404d1902c0.png","UrlLink":"green-fig-and-saltfish","Location":{"Latitude":14.0094832765399,"Longitude":-60.9903988040058},"OrderBy":0},{"FId":"181-1","Label":"Dolma","EntityId":181,"EntityType":1,"Image":"/Images/Dishes/a5620580f6704920a051e000dcdb574c.png","UrlLink":"dolma","Location":{"Latitude":39.9214900535027,"Longitude":32.8547022187596},"OrderBy":15400},{"FId":"182-1","Label":"Kebab","EntityId":182,"EntityType":1,"Image":"/images/dishes/ca364de6c9844fd9ac59ceff33deb53a.png","UrlLink":"kebab","Location":{"Latitude":39.9209119066165,"Longitude":32.854719165311},"OrderBy":628211},{"FId":"183-1","Label":"Köfte","EntityId":183,"EntityType":1,"Image":"/Images/Dishes/02634062753146088fd9ec0922790c50.png","UrlLink":"kofte","Location":{"Latitude":39.9219341279682,"Longitude":32.8557747509156},"OrderBy":128246},{"FId":"184-1","Label":"Pita Bread","EntityId":184,"EntityType":1,"Image":"/Images/Dishes/64e58129675a455eacbb0b27311096fb.png","UrlLink":"pita-bread","Location":{"Latitude":39.9209611857308,"Longitude":32.8546977557911},"OrderBy":32420},{"FId":"185-1","Label":"Domoda","EntityId":185,"EntityType":1,"Image":"/Images/Dishes/02704ef27f484f719995983a21029ecb.png","UrlLink":"domoda","Location":{"Latitude":13.4543478844728,"Longitude":-16.5915848782439},"OrderBy":14400},{"FId":"188-1","Label":"Harira","EntityId":188,"EntityType":1,"Image":"/images/dishes/f9b5561b68264cdbaf3872ff01b4e81c.png","UrlLink":"harira","Location":{"Latitude":34.0252303301999,"Longitude":-6.82835235520383},"OrderBy":16200},{"FId":"189-1","Label":"Pastilla","EntityId":189,"EntityType":1,"Image":"/Images/Dishes/1b50df22a266403cb36fb5cce90657d2.png","UrlLink":"pastilla","Location":{"Latitude":34.0229539565149,"Longitude":-6.8269790641882},"OrderBy":47800},{"FId":"190-1","Label":"Couscous (dish)","EntityId":190,"EntityType":1,"Image":"/Images/Dishes/dc1a28bc96284a3481aefa7710c749d1.png","UrlLink":"Moroccan-Couscous","Location":{"Latitude":34.0184010259743,"Longitude":-6.82835235520383},"OrderBy":47630},{"FId":"191-1","Label":"Tajine","EntityId":191,"EntityType":1,"Image":"/Images/Dishes/e9929be7468a43b19f0d15842ccb0a1d.png","UrlLink":"tajine","Location":{"Latitude":34.0161244691227,"Longitude":-6.80363311692258},"OrderBy":212400},{"FId":"192-1","Label":"Fungee and Pepperpot","EntityId":192,"EntityType":1,"Image":"/Images/Dishes/393fe1eaaa394e6e86b0b752f2ae3b8a.png","UrlLink":"fungee-and-pepperpot","Location":{"Latitude":17.1184871152677,"Longitude":-61.8443878854725},"OrderBy":1200},{"FId":"193-1","Label":"Crack Conch with Peas and Rice","EntityId":193,"EntityType":1,"Image":"/images/dishes/cd53f6a9736347b2813c803717172340.png","UrlLink":"crack-conch-with-peas-and-rice","Location":{"Latitude":25.076642718254,"Longitude":-77.3448964656749},"OrderBy":2430},{"FId":"194-1","Label":"Coo-Coo and Flying Fish","EntityId":194,"EntityType":1,"Image":"/Images/Dishes/79e0ac2cc5a144d2a5a9fd3344f867f2.png","UrlLink":"coo-coo-and-flying-fish","Location":{"Latitude":13.0978993396798,"Longitude":-59.6170796500653},"OrderBy":3000},{"FId":"195-1","Label":"Ackee and Saltfish","EntityId":195,"EntityType":1,"Image":"/Images/Dishes/7731b303e5df46a88b26a7510edba1b3.png","UrlLink":"ackee-and-saltfish","Location":{"Latitude":17.9714749932529,"Longitude":-76.7929678089335},"OrderBy":21600},{"FId":"196-1","Label":"Jamaican Patty","EntityId":196,"EntityType":1,"Image":"/Images/Dishes/97ed85f2d5934e1caa3edf1cad2970d0.png","UrlLink":"jamaican-patty","Location":{"Latitude":17.9718405371339,"Longitude":-76.7926065787437},"OrderBy":28220},{"FId":"197-1","Label":"Jambalaya","EntityId":197,"EntityType":1,"Image":"/images/dishes/d8104c9c7f614666b2123b24c446603f.png","UrlLink":"jambalaya","Location":{"Latitude":30.4507762366358,"Longitude":-91.1565337102233},"OrderBy":74800},{"FId":"198-1","Label":"Ugali","EntityId":198,"EntityType":1,"Image":"/Images/Dishes/3e1a9952816644d7b55040d1fb0dc032.png","UrlLink":"ugali","Location":{"Latitude":-6.18181714248452,"Longitude":35.7452009716027},"OrderBy":4800},{"FId":"199-1","Label":"Jamaican Jerk","EntityId":199,"EntityType":1,"Image":"/images/dishes/98713da3f7504b28944ad9c44b78dd5d.png","UrlLink":"jamaican-jerk","Location":{"Latitude":17.971171812603,"Longitude":-76.7935072149145},"OrderBy":96800},{"FId":"200-1","Label":"Plato típico","EntityId":200,"EntityType":1,"Image":"/Images/Dishes/e06aec9694e04383b7fc8e906bf630fc.png","UrlLink":"plato-tipico","Location":{"Latitude":14.093596549063,"Longitude":-87.2011305823807},"OrderBy":0},{"FId":"201-1","Label":"La bandera Dominicana","EntityId":201,"EntityType":1,"Image":"/Images/Dishes/27b5704a2bc54f4fbf9ec535cc461907.png","UrlLink":"la-bandera-dominicana","Location":{"Latitude":18.4820109454028,"Longitude":-69.9430051503994},"OrderBy":3000},{"FId":"202-1","Label":"Encebollado","EntityId":202,"EntityType":1,"Image":"/images/dishes/7e28e9662e0546d2adf709e92f63b484.png","UrlLink":"encebollado","Location":{"Latitude":-0.220760589546458,"Longitude":-78.512423111471},"OrderBy":18660},{"FId":"203-1","Label":"Platillo moros y cristiano","EntityId":203,"EntityType":1,"Image":"/Images/Dishes/f1f9fae03c8d4d9abe8f32de7b1dd3af.png","UrlLink":"platillo-moros-y-cristiano","Location":{"Latitude":23.1388423837573,"Longitude":-82.3664344682258},"OrderBy":4600},{"FId":"204-1","Label":"Machboos","EntityId":204,"EntityType":1,"Image":"/images/dishes/9f4c159440ec4ea591bb2b57ce27df31.png","UrlLink":"machboos","Location":{"Latitude":26.223340074425849,"Longitude":50.582109548542093},"OrderBy":0},{"FId":"205-1","Label":"Muhammar","EntityId":205,"EntityType":1,"Image":"/Images/Dishes/7c1161a03ba94329b8dbc15da1738ba3.png","UrlLink":"muhammar","Location":{"Latitude":26.2246603476232,"Longitude":50.5847040077666},"OrderBy":0},{"FId":"206-1","Label":"Belizean Rice and Beans with Stewed Chicken","EntityId":206,"EntityType":1,"Image":"/images/dishes/b0826b70f3f64ef8aab3cf457d770209.png","UrlLink":"belizean-rice-and-beans-with-stewed-chicken","Location":{"Latitude":17.2501463330649,"Longitude":-88.7762097820312},"OrderBy":0},{"FId":"207-1","Label":"Kuli-kuli","EntityId":207,"EntityType":1,"Image":"/images/dishes/93834e89e5174b05af556986295e61d7.png","UrlLink":"kuli-kuli","Location":{"Latitude":6.49876522024339,"Longitude":2.62135995993869},"OrderBy":0},{"FId":"208-1","Label":"Ema datsi","EntityId":208,"EntityType":1,"Image":"/images/dishes/dc252ad18ef44353879e0874e59d9c9c.png","UrlLink":"ema-datsi","Location":{"Latitude":27.4703460765016,"Longitude":89.6264465642501},"OrderBy":0},{"FId":"209-1","Label":"Salteñas","EntityId":209,"EntityType":1,"Image":"/images/dishes/707775eca3304ce98ecb8fc12802f133.png","UrlLink":"saltenas","Location":{"Latitude":-19.589062093518066,"Longitude":-65.753733282068467},"OrderBy":46810},{"FId":"210-1","Label":"Seswaa","EntityId":210,"EntityType":1,"Image":"/Images/Dishes/f9cee0a78336430fa5c79dca42286bb7.png","UrlLink":"seswaa","Location":{"Latitude":-24.6562744906171,"Longitude":25.9034207345614},"OrderBy":0},{"FId":"211-1","Label":"Riz gras","EntityId":211,"EntityType":1,"Image":"/Images/Dishes/b42390ac4d614840acb9d6dc3efc0a4a.png","UrlLink":"riz-gras","Location":{"Latitude":12.3679480212537,"Longitude":-1.52225927799989},"OrderBy":0},{"FId":"214-1","Label":"Ful medames","EntityId":214,"EntityType":1,"Image":"/images/dishes/ac26c0757ae4430998cf711dd832637e.png","UrlLink":"ful-medames","Location":{"Latitude":30.0475867767412,"Longitude":31.249684828189},"OrderBy":11400},{"FId":"215-1","Label":"Kushari","EntityId":215,"EntityType":1,"Image":"/Images/Dishes/ecb0a200323f40eabbfe8d90b889e989.png","UrlLink":"kushari","Location":{"Latitude":30.0494523311712,"Longitude":31.2469476686563},"OrderBy":14400},{"FId":"216-1","Label":"Brigadeiro","EntityId":216,"EntityType":1,"Image":"/images/dishes/5031fa6bd301403aa3a9a464327ed191.png","UrlLink":"brigadeiro","Location":{"Latitude":-22.908645316783449,"Longitude":-43.188805124385112},"OrderBy":13800},{"FId":"217-1","Label":"Churrasco","EntityId":217,"EntityType":1,"Image":"/images/dishes/d82b1939575b4c8b90ef903e04f12ae2.png","UrlLink":"churrasco","Location":{"Latitude":-30.033393728255028,"Longitude":-51.233093580880734},"OrderBy":242357},{"FId":"218-1","Label":"Feijoada (Brazil)","EntityId":218,"EntityType":1,"Image":"/Images/Dishes/d49243fa41b9446487ab8db041659d95.png","UrlLink":"feijoada","Location":{"Latitude":-15.7950384687925,"Longitude":-47.8802072765417},"OrderBy":64190},{"FId":"219-1","Label":"Fish and Fungi","EntityId":219,"EntityType":1,"Image":"/Images/Dishes/635f2f3f076e4f7f848f5e6b2bc043f1.png","UrlLink":"fish-and-fungi","Location":{"Latitude":18.425652526492925,"Longitude":-64.623294659997512},"OrderBy":3400},{"FId":"220-1","Label":"Ambuyat","EntityId":220,"EntityType":1,"Image":"/Images/Dishes/a9c1ec78e7c24c6c825f812e5f2b5218.png","UrlLink":"ambuyat","Location":{"Latitude":4.88886799264519,"Longitude":114.941205268417},"OrderBy":0},{"FId":"221-1","Label":"Manhattan Clam Chowder","EntityId":221,"EntityType":1,"Image":"/Images/Dishes/87b30672624a4d6b83273033cbf83d13.png","UrlLink":"manhattan-clam-chowder","Location":{"Latitude":40.7500604595426,"Longitude":-73.9802219846306},"OrderBy":6000},{"FId":"222-1","Label":"Akutaq","EntityId":222,"EntityType":1,"Image":"/Images/Dishes/3ddaf2e808cb447d96d252490c934b62.png","UrlLink":"akutaq","Location":{"Latitude":58.3033369863315,"Longitude":-134.420857601935},"OrderBy":0},{"FId":"223-1","Label":"Clam Cake","EntityId":223,"EntityType":1,"Image":"/images/dishes/6b7ae8999be742f682962eabd9bca8bb.png","UrlLink":"clam-cake","Location":{"Latitude":42.3524089644694,"Longitude":-71.0560814250968},"OrderBy":63400},{"FId":"224-1","Label":"Kavarma","EntityId":224,"EntityType":1,"Image":"/Images/Dishes/daebddc8bc4b475a9163bd70d6f4b684.png","UrlLink":"kavarma","Location":{"Latitude":42.6973262590551,"Longitude":23.3251733325475},"OrderBy":6030},{"FId":"225-1","Label":"Shopska Salad","EntityId":225,"EntityType":1,"Image":"/Images/Dishes/d57f4dcc8aaf4b8c99eacc1308207acd.png","UrlLink":"shopska-salad","Location":{"Latitude":42.6978927424221,"Longitude":23.3234065153441},"OrderBy":10830},{"FId":"226-1","Label":"Amok trey","EntityId":226,"EntityType":1,"Image":"/Images/Dishes/5f052bdedd344d34b8421b8ada637d53.png","UrlLink":"amok-trey","Location":{"Latitude":11.5686494150091,"Longitude":104.922144613047},"OrderBy":111060},{"FId":"227-1","Label":"Samlor kako","EntityId":227,"EntityType":1,"Image":"/images/dishes/53cd687656fb47569a0b7be00bdc0004.png","UrlLink":"samlor-kako","Location":{"Latitude":11.567321792061,"Longitude":104.924310586146},"OrderBy":8400},{"FId":"228-1","Label":"Ajiaco","EntityId":228,"EntityType":1,"Image":"/images/dishes/9ec699b23f6f49fcbe078f530a21ec82.png","UrlLink":"ajiaco","Location":{"Latitude":4.62022879697899,"Longitude":-74.0657043457031},"OrderBy":31200},{"FId":"229-1","Label":"Hormiga culona","EntityId":229,"EntityType":1,"Image":"/Images/Dishes/8a2cea3f4a9a4534892bfa50b2990264.png","UrlLink":"hormiga-culona","Location":{"Latitude":7.11249336797196,"Longitude":-73.114632450415},"OrderBy":7200},{"FId":"230-1","Label":"Bandeja paisa","EntityId":230,"EntityType":1,"Image":"/images/dishes/124324df1c5c447aa74953a425517364.png","UrlLink":"bandeja-paisa","Location":{"Latitude":6.23796518232301,"Longitude":-75.5661427828453},"OrderBy":44600},{"FId":"231-1","Label":"Sancocho","EntityId":231,"EntityType":1,"Image":"/images/dishes/80eeb66123144baeb8331014bf288a0b.png","UrlLink":"sancocho","Location":{"Latitude":4.60171703194953,"Longitude":-74.0741623574374},"OrderBy":9027},{"FId":"232-1","Label":"Casados","EntityId":232,"EntityType":1,"Image":"/Images/Dishes/2a74525d206e478cac613308e6b6c8e4.png","UrlLink":"casados","Location":{"Latitude":9.93137226689784,"Longitude":-84.0766551657525},"OrderBy":33630},{"FId":"233-1","Label":"Gallo pinto","EntityId":233,"EntityType":1,"Image":"/Images/Dishes/3d4422c35db44422b94d8b421e727947.png","UrlLink":"gallo-pinto","Location":{"Latitude":9.92799046866753,"Longitude":-84.0767012163125},"OrderBy":6630},{"FId":"234-1","Label":"Skoudehkaris","EntityId":234,"EntityType":1,"Image":"/Images/Dishes/9f96953363904415bc91f10f220e425c.png","UrlLink":"skoudehkaris","Location":{"Latitude":11.5942287297208,"Longitude":43.1482154910758},"OrderBy":0},{"FId":"235-1","Label":"Pupusa","EntityId":235,"EntityType":1,"Image":"/Images/Dishes/82738c9bedc9488783f51637cb905559.png","UrlLink":"pupusa","Location":{"Latitude":13.697177772329,"Longitude":-89.1923773752812},"OrderBy":11446},{"FId":"236-1","Label":"Fufu","EntityId":236,"EntityType":1,"Image":"/Images/Dishes/bcf6726b986f4c95948b8b2aac1215c1.png","UrlLink":"fufu","Location":{"Latitude":5.55873553521609,"Longitude":-0.204950748058205},"OrderBy":0},{"FId":"237-1","Label":"Clam Bake","EntityId":237,"EntityType":1,"Image":"/Images/Dishes/c5abd23caad74a0f9c9e895d09083518.png","UrlLink":"clam-bake","Location":{"Latitude":42.3540133327566,"Longitude":-71.0577086919352},"OrderBy":44400},{"FId":"238-1","Label":"Chocolate Chip Cookie","EntityId":238,"EntityType":1,"Image":"/Images/Dishes/79433b5fbfc147dbbb5ba14e9d98c703.png","UrlLink":"toll-house-chocolate-chip-cookies","Location":{"Latitude":42.0808058078649,"Longitude":-70.9355345656232},"OrderBy":104400},{"FId":"239-1","Label":"Vermont Corn Chowder","EntityId":239,"EntityType":1,"Image":"/images/dishes/ff159c19878a404d926e1018a3255f36.png","UrlLink":"vermont-corn-chowder","Location":{"Latitude":44.2633331126447,"Longitude":-72.5728484294689},"OrderBy":18600},{"FId":"240-1","Label":"Afghan mantu","EntityId":240,"EntityType":1,"Image":"/images/dishes/440c6bf4ce4341a1aa9c1e0e9ba547b3.png","UrlLink":"afghan-mantu","Location":{"Latitude":34.5249489104199,"Longitude":69.1782649943249},"OrderBy":2600},{"FId":"241-1","Label":"Aushak","EntityId":241,"EntityType":1,"Image":"/images/dishes/ed8c306910e841f9b175ee596426559e.png","UrlLink":"aushak","Location":{"Latitude":34.525510608193,"Longitude":69.1788221841374},"OrderBy":2600},{"FId":"242-1","Label":"Kabuli pulao","EntityId":242,"EntityType":1,"Image":"/images/dishes/c6bd5bcfe7814fa7b7315a5e59b32890.png","UrlLink":"kabuli-pulao","Location":{"Latitude":34.5184169432803,"Longitude":69.1838605676},"OrderBy":12800},{"FId":"243-1","Label":"Khameerbob","EntityId":243,"EntityType":1,"Image":"/images/dishes/dacb4aa8c5074e3591b026847f1d715d.png","UrlLink":"khameerbob","Location":{"Latitude":34.5271396627303,"Longitude":69.1761298014141},"OrderBy":0},{"FId":"244-1","Label":"Calentita","EntityId":244,"EntityType":1,"Image":"/images/dishes/bd42e34486564f799ee10657a567d668.png","UrlLink":"calentita","Location":{"Latitude":36.1443034540832,"Longitude":-5.34747996015514},"OrderBy":0},{"FId":"245-1","Label":"California Sourdough Bread ","EntityId":245,"EntityType":1,"Image":"/Images/Dishes/3c54fa18670c44eb8281be8ff943321f.png","UrlLink":"california-sourdough-bread","Location":{"Latitude":37.7414709577078,"Longitude":-122.462192892343},"OrderBy":96485},{"FId":"246-1","Label":"Escudella de pagés","EntityId":246,"EntityType":1,"Image":"/images/dishes/d25133d1d536421fac828c84ed3965a8.png","UrlLink":"escudella-de-pages","Location":{"Latitude":42.5069505240248,"Longitude":1.52152928917542},"OrderBy":0},{"FId":"247-1","Label":"Harissa ","EntityId":247,"EntityType":1,"Image":"/Images/Dishes/7baa4903ed914086862fe472c0b2bdf5.png","UrlLink":"harissa","Location":{"Latitude":40.1739884927624,"Longitude":44.5168286542813},"OrderBy":3630},{"FId":"248-1","Label":"Lavash","EntityId":248,"EntityType":1,"Image":"/Images/Dishes/cbba8de6d18d4412ae97f6d06d630108.png","UrlLink":"lavash","Location":{"Latitude":40.1781856290822,"Longitude":44.5085889081875},"OrderBy":6400},{"FId":"249-1","Label":"Joe's Special","EntityId":249,"EntityType":1,"Image":"/Images/Dishes/f26cd53e926c4795a96f60b533b5e5fc.png","UrlLink":"joes-special","Location":{"Latitude":37.7446076642081,"Longitude":-122.454254467023},"OrderBy":14200},{"FId":"250-1","Label":"French Dip Sandwich","EntityId":250,"EntityType":1,"Image":"/Images/Dishes/57ca6d38f94641cf9ce3b75a2bd04730.png","UrlLink":"french-dip-sandwich","Location":{"Latitude":38.5836346416673,"Longitude":-121.495216280835},"OrderBy":54000},{"FId":"251-1","Label":"Fasolada","EntityId":251,"EntityType":1,"Image":"/images/dishes/e9374a2d9d514e4992094bd37f4eb2bf.png","UrlLink":"fasolada","Location":{"Latitude":37.984110799002,"Longitude":23.7284957206721},"OrderBy":0},{"FId":"252-1","Label":"Greek Salad","EntityId":252,"EntityType":1,"Image":"/Images/Dishes/a1a6c3135bcd438f8effd646aadee1f4.png","UrlLink":"greek-salad","Location":{"Latitude":37.9834110308921,"Longitude":23.7283776739975},"OrderBy":21230},{"FId":"253-1","Label":"Kleftiko","EntityId":253,"EntityType":1,"Image":"/images/dishes/6d48309b67b2476bb7896cc9d6e63bcf.png","UrlLink":"kleftiko","Location":{"Latitude":37.9818021042823,"Longitude":23.7349853061849},"OrderBy":6000},{"FId":"254-1","Label":"Moussaka","EntityId":254,"EntityType":1,"Image":"/Images/Dishes/e09ae12f45df40d193936d0861b1b95d.png","UrlLink":"moussaka","Location":{"Latitude":37.984354461004,"Longitude":23.7283034148135},"OrderBy":66490},{"FId":"255-1","Label":"Saganaki","EntityId":255,"EntityType":1,"Image":"/images/dishes/1be279afa976469d90ecdf9420ec120f.png","UrlLink":"saganaki","Location":{"Latitude":37.9847793254552,"Longitude":23.7277108216894},"OrderBy":2600},{"FId":"256-1","Label":"Kibbeh","EntityId":256,"EntityType":1,"Image":"/images/dishes/92e610015e47475e83d096d8f121e4f6.png","UrlLink":"kibbeh","Location":{"Latitude":33.895664139149,"Longitude":35.4772553742406},"OrderBy":70210},{"FId":"257-1","Label":"Tabbouleh","EntityId":257,"EntityType":1,"Image":"/images/dishes/537b67bf0caf404a95537f5b186ece0a.png","UrlLink":"tabbouleh","Location":{"Latitude":33.8962980041102,"Longitude":35.4776146027674},"OrderBy":40010},{"FId":"258-1","Label":"Arroz con gandules","EntityId":258,"EntityType":1,"Image":"/Images/Dishes/0f0057a2e699445a81a14a1c5acfe5d9.png","UrlLink":"arroz-con-gandules","Location":{"Latitude":18.4655244923512,"Longitude":-66.1129683647562},"OrderBy":7200},{"FId":"259-1","Label":"Pasteles","EntityId":259,"EntityType":1,"Image":"/images/dishes/2309cf16ddf94715ab6039397046823b.png","UrlLink":"pasteles","Location":{"Latitude":18.4658617547548,"Longitude":-66.1123218923406},"OrderBy":13600},{"FId":"260-1","Label":"Diri ak pwa","EntityId":260,"EntityType":1,"Image":"/images/dishes/d5297c51126744cfad53c9320bfd8687.png","UrlLink":"diri-ak-pwa","Location":{"Latitude":18.5469991247275,"Longitude":-72.3392071092625},"OrderBy":0},{"FId":"261-1","Label":"Griot","EntityId":261,"EntityType":1,"Image":"/Images/Dishes/a8c6b9f8dd4f46b98a27eb6e496a619a.png","UrlLink":"griot","Location":{"Latitude":18.5469329393865,"Longitude":-72.3400706620117},"OrderBy":6600},{"FId":"262-1","Label":"Mansaf","EntityId":262,"EntityType":1,"Image":"/Images/Dishes/62fcb49b6a7643ee84ceccaae19baebc.png","UrlLink":"mansaf","Location":{"Latitude":31.9517693515172,"Longitude":35.9259516237517},"OrderBy":15600},{"FId":"263-1","Label":"Kalua Pig","EntityId":263,"EntityType":1,"Image":"/images/dishes/0b58a993c3cf4bcebc32dd146cebc5ef.png","UrlLink":"kalua-pig","Location":{"Latitude":21.3040595147544,"Longitude":-157.852650302688},"OrderBy":12000},{"FId":"264-1","Label":"Apizza","EntityId":264,"EntityType":1,"Image":"/images/dishes/2e4554771625419188c4f874ed87c8b4.png","UrlLink":"apizza","Location":{"Latitude":41.3307386848291,"Longitude":-72.9002023339239},"OrderBy":71680},{"FId":"265-1","Label":"Flæskesteg","EntityId":265,"EntityType":1,"Image":"/images/dishes/ca29c0c3e9404a8a9853dccb06ace3fa.png","UrlLink":"flskesteg","Location":{"Latitude":55.686313443576,"Longitude":12.5712964839493},"OrderBy":0},{"FId":"266-1","Label":"Frikadeller","EntityId":266,"EntityType":1,"Image":"/Images/Dishes/e6e43e94898a4cb5a3a7b4b989389e59.png","UrlLink":"frikadeller","Location":{"Latitude":55.6867877730936,"Longitude":12.5711377251602},"OrderBy":2400},{"FId":"267-1","Label":"Pølser","EntityId":267,"EntityType":1,"Image":"/images/dishes/e17acaded9334920924f8e4eeee7559f.png","UrlLink":"polser","Location":{"Latitude":55.6917986597927,"Longitude":12.5112757452975},"OrderBy":18600},{"FId":"268-1","Label":"Snickerdoodle","EntityId":268,"EntityType":1,"Image":"/Images/Dishes/e897fb73b41b4daaa4b606ebd6ce35e8.png","UrlLink":"snickerdoodle","Location":{"Latitude":41.7654131819062,"Longitude":-72.6921319122955},"OrderBy":61200},{"FId":"269-1","Label":"Smørrebrød","EntityId":269,"EntityType":1,"Image":"/images/dishes/8d173c4d7d154a8386052bc516792eb0.png","UrlLink":"smorrebrod","Location":{"Latitude":55.6865825115528,"Longitude":12.5733555001109},"OrderBy":185690},{"FId":"270-1","Label":"Key Lime Pie","EntityId":270,"EntityType":1,"Image":"/Images/Dishes/860e72d311974b928716228ab69ba5e7.png","UrlLink":"key-lime-pie","Location":{"Latitude":30.4389633068817,"Longitude":-84.2793219335887},"OrderBy":153400},{"FId":"271-1","Label":"Maine Lobster","EntityId":271,"EntityType":1,"Image":"/images/dishes/8f2983962b1a44cbbc6715a3a4c66f4c.png","UrlLink":"maine-lobster","Location":{"Latitude":44.310333332631,"Longitude":-69.7817766276678},"OrderBy":125000},{"FId":"272-1","Label":"Lobster Roll","EntityId":272,"EntityType":1,"Image":"/images/dishes/58348c9106374727bb988c4be734d8e1.png","UrlLink":"lobster-roll","Location":{"Latitude":44.3112231316073,"Longitude":-69.7731636614264},"OrderBy":680840},{"FId":"273-1","Label":"Fluffernutter","EntityId":273,"EntityType":1,"Image":"/images/dishes/9d2994d2c2cd404baeaf42ccd3f75280.png","UrlLink":"fluffernutter","Location":{"Latitude":42.3477580479477,"Longitude":-71.0623538031663},"OrderBy":22000},{"FId":"274-1","Label":"Biltong","EntityId":274,"EntityType":1,"Image":"/Images/Dishes/07a57d4d7e86454db21d483e83ba9680.png","UrlLink":"biltong","Location":{"Latitude":-33.9324040502543,"Longitude":18.4160908100262},"OrderBy":10200},{"FId":"275-1","Label":"Bobotie","EntityId":275,"EntityType":1,"Image":"/Images/Dishes/3bb26d9e07aa446da4df84a79b92b65c.png","UrlLink":"bobotie","Location":{"Latitude":-33.9281121266524,"Longitude":18.4186277636395},"OrderBy":9027},{"FId":"276-1","Label":"Scottish Shortbread","EntityId":276,"EntityType":1,"Image":"/Images/Dishes/708ea7a9b28b4142ae196bf94b16a989.png","UrlLink":"scottish-shortbread","Location":{"Latitude":55.9490782395368,"Longitude":-3.19147993273635},"OrderBy":31800},{"FId":"277-1","Label":"Mince and Tatties","EntityId":277,"EntityType":1,"Image":"/Images/Dishes/92fec31588eb45ff812de959a9972d63.png","UrlLink":"mince-and-tatties","Location":{"Latitude":55.9494507909066,"Longitude":-3.19038347061689},"OrderBy":13200},{"FId":"278-1","Label":"Scottish Porridge","EntityId":278,"EntityType":1,"Image":"/Images/Dishes/e8ceb416299346cb9ae583a530ed137e.png","UrlLink":"scottish-porridge","Location":{"Latitude":55.9490436468867,"Longitude":-3.18883704266634},"OrderBy":5400},{"FId":"279-1","Label":"Mandi","EntityId":279,"EntityType":1,"Image":"/Images/Dishes/dd918aa4d8c147cfab7eb0a926855fa6.png","UrlLink":"mandi","Location":{"Latitude":14.5453060897254,"Longitude":49.1233276271986},"OrderBy":5610},{"FId":"280-1","Label":"Aseeda","EntityId":280,"EntityType":1,"Image":"/Images/Dishes/7d90055db263493393ee0ca1e2b43e20.png","UrlLink":"aseeda","Location":{"Latitude":12.7896080187169,"Longitude":45.0289309439622},"OrderBy":0},{"FId":"281-1","Label":"Saltah","EntityId":281,"EntityType":1,"Image":"/Images/Dishes/893c65214aae4951a1048e72d816bc66.png","UrlLink":"saltah","Location":{"Latitude":12.7889014905828,"Longitude":45.0323949076321},"OrderBy":800},{"FId":"282-1","Label":"Guyana Pepperpot","EntityId":282,"EntityType":1,"Image":"/images/dishes/d3767d95f1c7457bbcdb3aefd732fd23.png","UrlLink":"guyana-pepperpot","Location":{"Latitude":6.80223725775622,"Longitude":-58.1659191763446},"OrderBy":0},{"FId":"283-1","Label":"Guyanese Cook Up Rice","EntityId":283,"EntityType":1,"Image":"/images/dishes/e47da8d727b6493aac16265ff0f3faca.png","UrlLink":"guyanese-cook-up-rice","Location":{"Latitude":6.80484648722246,"Longitude":-58.1721175455084},"OrderBy":0},{"FId":"284-1","Label":"Chuchitos","EntityId":284,"EntityType":1,"Image":"/Images/Dishes/5cb75c0355a34732bca77439773091f4.png","UrlLink":"chuchitos","Location":{"Latitude":14.6211350042573,"Longitude":-90.5269659939948},"OrderBy":0},{"FId":"285-1","Label":"Oil Down","EntityId":285,"EntityType":1,"Image":"/Images/Dishes/6501f33f72d74cef83192e508426ffef.png","UrlLink":"oil-down","Location":{"Latitude":12.0534755412603,"Longitude":-61.7500291025375},"OrderBy":10200},{"FId":"286-1","Label":"Johnnycake","EntityId":286,"EntityType":1,"Image":"/Images/Dishes/4d2e26805caf4184999d3f30fbeda393.png","UrlLink":"johnnycake","Location":{"Latitude":41.8063108927304,"Longitude":-71.3842434559397},"OrderBy":52600},{"FId":"287-1","Label":"Gulyás","EntityId":287,"EntityType":1,"Image":"/images/dishes/66b7cdb0e8534f5c8259a0434db1393a.png","UrlLink":"gulyas","Location":{"Latitude":47.4975981129372,"Longitude":19.0472909093146},"OrderBy":125400},{"FId":"288-1","Label":"Paprikás csirke","EntityId":288,"EntityType":1,"Image":"/Images/Dishes/451b5e3295654ef3ba181fd461709f61.png","UrlLink":"paprikas-csirke","Location":{"Latitude":47.4990494671552,"Longitude":19.0408716229376},"OrderBy":20400},{"FId":"289-1","Label":"Bosanski lonac","EntityId":289,"EntityType":1,"Image":"/images/dishes/9fde2715f01f4aed995499ca87ce69d0.png","UrlLink":"bosanski-lonac","Location":{"Latitude":43.8503918269143,"Longitude":18.3857104896719},"OrderBy":6600},{"FId":"290-1","Label":"Choucroute garnie","EntityId":290,"EntityType":1,"Image":"/Images/Dishes/67c9f10da4b240668fae72e5a26b223c.png","UrlLink":"choucroute-garnie","Location":{"Latitude":48.5845851387722,"Longitude":7.75297652719513},"OrderBy":31200},{"FId":"291-1","Label":"Spiedie","EntityId":291,"EntityType":1,"Image":"/Images/Dishes/c92f676e166a45d995f64d2c0b171b2f.png","UrlLink":"spiedie","Location":{"Latitude":42.0990697867224,"Longitude":-75.9184469676483},"OrderBy":17445},{"FId":"292-1","Label":"Pâté Gaumais","EntityId":292,"EntityType":1,"Image":"/images/dishes/52ceedbfd8e147bca0a7b2095678499d.png","UrlLink":"pate-gaumais","Location":{"Latitude":49.61121171096741,"Longitude":6.1317252770842465},"OrderBy":0},{"FId":"293-1","Label":"Kalakukko","EntityId":293,"EntityType":1,"Image":"/images/dishes/b7b11e1dc1fb4f13894ca27aa09c8d2e.png","UrlLink":"kalakukko","Location":{"Latitude":62.891759713017,"Longitude":27.6759257298426},"OrderBy":17600},{"FId":"294-1","Label":"Karjalanpiirakka","EntityId":294,"EntityType":1,"Image":"/images/dishes/4fd2c6b858584d11a93a01634fb7ac80.png","UrlLink":"karjalanpiirakka","Location":{"Latitude":62.6003282858777,"Longitude":29.7666209926389},"OrderBy":0},{"FId":"295-1","Label":"Sklandrausis","EntityId":295,"EntityType":1,"Image":"/Images/Dishes/887926672b764ea5a7eb74935ec2ea2a.png","UrlLink":"sklandrausis","Location":{"Latitude":56.5106597591125,"Longitude":21.0185345746516},"OrderBy":2800},{"FId":"296-1","Label":"Pierekaczewnik","EntityId":296,"EntityType":1,"Image":"/Images/Dishes/0284bd5305824f73873d2493fc16b143.png","UrlLink":"pierekaczewnik","Location":{"Latitude":53.1303451798142,"Longitude":23.1642626923147},"OrderBy":0},{"FId":"297-1","Label":"Buffalo Wings","EntityId":297,"EntityType":1,"Image":"/images/dishes/c8999ffc2679432c9e0a9f34a840728a.png","UrlLink":"buffalo-wings","Location":{"Latitude":42.880327692054,"Longitude":-78.879403519856},"OrderBy":106805},{"FId":"298-1","Label":"Prekmurska gibanica","EntityId":298,"EntityType":1,"Image":"/Images/Dishes/122c5c3be1c04aa08a41a2d41a11b35a.png","UrlLink":"prekmurska-gibanica","Location":{"Latitude":46.6626167086584,"Longitude":16.1654740031432},"OrderBy":36621},{"FId":"299-1","Label":"Geraardsbergse mattentaart","EntityId":299,"EntityType":1,"Image":"/Images/Dishes/a35770392e8b403996ac2f9c5ebc436f.png","UrlLink":"mattentaart","Location":{"Latitude":50.769142694536,"Longitude":3.87996339963043},"OrderBy":1000},{"FId":"300-1","Label":"Liers vlaaike","EntityId":300,"EntityType":1,"Image":"/Images/Dishes/45d434ac2217462e8da83ec06a30b6fb.png","UrlLink":"liers-vlaaike","Location":{"Latitude":51.1313505482091,"Longitude":4.56960407178896},"OrderBy":0},{"FId":"301-1","Label":"Valašský frgál","EntityId":301,"EntityType":1,"Image":"/Images/Dishes/f631b62a6cc844a48891399b56d87e18.png","UrlLink":"valassky-frgal","Location":{"Latitude":49.3377732248811,"Longitude":17.9969238168671},"OrderBy":27},{"FId":"302-1","Label":"Kainuun rönttönen","EntityId":302,"EntityType":1,"Image":"/Images/Dishes/2866e2e57058411fbe6f8f3bdfeaac74.png","UrlLink":"kainuun-ronttonen","Location":{"Latitude":64.2236507969409,"Longitude":27.7326575559506},"OrderBy":0},{"FId":"303-1","Label":"Poljički soparnik","EntityId":303,"EntityType":1,"Image":"/Images/Dishes/d113cbc4975845f0b3a5058a1e36da09.png","UrlLink":"poljicki-soparnik","Location":{"Latitude":43.499707412842582,"Longitude":16.698563361356335},"OrderBy":4840},{"FId":"304-1","Label":"Focaccia di Recco col formaggio","EntityId":304,"EntityType":1,"Image":"/images/dishes/281a6a3a3bb048769866a7d303a70b44.png","UrlLink":"focaccia-di-recco","Location":{"Latitude":44.3654510166939,"Longitude":9.14634406216483},"OrderBy":105000},{"FId":"305-1","Label":"Cebularz Lubelski","EntityId":305,"EntityType":1,"Image":"/Images/Dishes/73bf8497bbe94171b1d099f7123ddd0b.png","UrlLink":"cebularz-lubelski","Location":{"Latitude":51.248971069221,"Longitude":22.5702004391016},"OrderBy":9640},{"FId":"306-1","Label":"Kołocz śląski","EntityId":306,"EntityType":1,"Image":"/Images/Dishes/ef750b1c2f3a402ea5816b07baab7efd.png","UrlLink":"kolocz-slaski","Location":{"Latitude":50.666443518735,"Longitude":17.9245094024827},"OrderBy":0},{"FId":"307-1","Label":"Gaziantep baklavası","EntityId":307,"EntityType":1,"Image":"/images/dishes/75769e6eb2fa40deb6a6f2f441f84461.png","UrlLink":"antep-baklavasi","Location":{"Latitude":37.0611720016977,"Longitude":37.379261352843},"OrderBy":43400},{"FId":"308-1","Label":"Cornish Pasty","EntityId":308,"EntityType":1,"Image":"/Images/Dishes/263ca0e162a24f859bfa3b509aeb94fc.png","UrlLink":"cornish-pasty","Location":{"Latitude":50.261695816376,"Longitude":-5.05237346228951},"OrderBy":34440},{"FId":"309-1","Label":"Melton Mowbray Pork Pie","EntityId":309,"EntityType":1,"Image":"/Images/Dishes/8b1052c6fa35483a8b73cb56c95624fc.png","UrlLink":"melton-mowbray-pork-pie","Location":{"Latitude":51.5065202552224,"Longitude":-0.125593505608398},"OrderBy":15030},{"FId":"310-1","Label":"Birmingham Balti","EntityId":310,"EntityType":1,"Image":"/Images/Dishes/d459207a2e8841578f2d2afbd8572cc4.png","UrlLink":"birmingham-balti","Location":{"Latitude":52.4753401792515,"Longitude":-1.91915641506246},"OrderBy":14000},{"FId":"311-1","Label":"Idrijski žlikrofi","EntityId":311,"EntityType":1,"Image":"/Images/Dishes/269a2832bac34c27ba520240a53837dc.png","UrlLink":"idrijski-zlikrofi","Location":{"Latitude":46.0022831648624,"Longitude":14.0275876187252},"OrderBy":25860},{"FId":"312-1","Label":"Pão de Ló de Ovar","EntityId":312,"EntityType":1,"Image":"/images/dishes/191204d46fea4be4bc2667a31291ffb9.png","UrlLink":"pao-de-lo-de-ovar","Location":{"Latitude":40.8596279985442,"Longitude":-8.62534610455524},"OrderBy":2000},{"FId":"313-1","Label":"Pineapple Bun","EntityId":313,"EntityType":1,"Image":"/images/dishes/a0be39fb80ba448982ad6710c3668328.png","UrlLink":"pineapple-bun","Location":{"Latitude":22.2790763544583,"Longitude":114.163181265952},"OrderBy":84800},{"FId":"314-1","Label":"Roast Goose","EntityId":314,"EntityType":1,"Image":"/images/dishes/a39f08a8994d45bc97f8a8595b105b45.png","UrlLink":"roast-goose","Location":{"Latitude":22.2783288988531,"Longitude":114.163369442082},"OrderBy":58000},{"FId":"315-1","Label":"Dim sum","EntityId":315,"EntityType":1,"Image":"/images/dishes/7e35477ec56c4725bd1991b2efad5789.png","UrlLink":"dim-sum","Location":{"Latitude":23.1378383078009,"Longitude":113.318304274182},"OrderBy":2856769},{"FId":"316-1","Label":"Chiles en nogada","EntityId":316,"EntityType":1,"Image":"/Images/Dishes/74b48d69802d409ca1d9a0448bb199ed.png","UrlLink":"chiles-en-nogada","Location":{"Latitude":19.4319933658008,"Longitude":-99.1320041566721},"OrderBy":103200},{"FId":"317-1","Label":"Guacamole","EntityId":317,"EntityType":1,"Image":"/images/dishes/4c2ac77cdc4944268749bc4425f5556b.png","UrlLink":"guacamole","Location":{"Latitude":19.4321305666399,"Longitude":-99.1315886097353},"OrderBy":51430},{"FId":"318-1","Label":"Mole Poblano","EntityId":318,"EntityType":1,"Image":"/images/dishes/155d0cfff2864f609de6e302e3298b92.png","UrlLink":"mole-poblano","Location":{"Latitude":17.060501803122335,"Longitude":-96.724680247516176},"OrderBy":49224},{"FId":"319-1","Label":"Pozole","EntityId":319,"EntityType":1,"Image":"/images/dishes/afe9288fbd4a4d339f01998947816e5e.png","UrlLink":"pozole","Location":{"Latitude":19.4337616670346,"Longitude":-99.1286998932151},"OrderBy":57800},{"FId":"320-1","Label":"Tacos","EntityId":320,"EntityType":1,"Image":"/images/dishes/dd2302ad0644484f86174c32bea70623.png","UrlLink":"tacos","Location":{"Latitude":19.4455425284476,"Longitude":-99.1261896142189},"OrderBy":1307539},{"FId":"321-1","Label":"Tamal","EntityId":321,"EntityType":1,"Image":"/Images/Dishes/dce13aa4097d4c3bae031b5a718549f3.png","UrlLink":"tamal","Location":{"Latitude":19.4328470924184,"Longitude":-99.1313978952696},"OrderBy":132027},{"FId":"322-1","Label":"Bizcochito","EntityId":322,"EntityType":1,"Image":"/Images/Dishes/eb9621b6be624cb283f528ce5d6d8584.png","UrlLink":"bizcochito","Location":{"Latitude":35.688661746527686,"Longitude":-105.94415220463972},"OrderBy":25600},{"FId":"323-1","Label":"Ärtsoppa","EntityId":323,"EntityType":1,"Image":"/images/dishes/833bc1c86e34410ea30856e056efcc65.png","UrlLink":"artsoppa","Location":{"Latitude":59.3252129848882,"Longitude":18.0694058601837},"OrderBy":4230},{"FId":"324-1","Label":"Köttbullar","EntityId":324,"EntityType":1,"Image":"/images/dishes/e860520c94f94fa6ad5fabeaa6f49524.png","UrlLink":"kottbullar","Location":{"Latitude":59.3249555789612,"Longitude":18.0703614274542},"OrderBy":95400},{"FId":"325-1","Label":"Smörgåsbord","EntityId":325,"EntityType":1,"Image":"/Images/Dishes/74b1475df8c449e9a714ecbcb5fa4d4e.png","UrlLink":"smorgasbord","Location":{"Latitude":59.3250360149747,"Longitude":18.0680315617014},"OrderBy":8400},{"FId":"326-1","Label":"İnegöl köfte","EntityId":326,"EntityType":1,"Image":"/Images/Dishes/4fde08a97a8d4bcdb4e32479ab5c1145.png","UrlLink":"inegol-kofte","Location":{"Latitude":40.0800691773842,"Longitude":29.5101011428929},"OrderBy":12400},{"FId":"327-1","Label":"Frankfurter Grüne Soße","EntityId":327,"EntityType":1,"Image":"/Images/Dishes/ede1fba24dc844c89b28261481eb28e1.png","UrlLink":"frankfurter-grune-sosse","Location":{"Latitude":50.1006284782768,"Longitude":8.67634270580977},"OrderBy":70940},{"FId":"328-1","Label":"Adobo","EntityId":328,"EntityType":1,"Image":"/images/dishes/cdb620acca33489e8dc353096cbd3994.png","UrlLink":"adobo","Location":{"Latitude":14.5902026391498,"Longitude":120.981805253604},"OrderBy":33600},{"FId":"330-1","Label":"Lechon","EntityId":330,"EntityType":1,"Image":"/Images/Dishes/cec794bba03943df88450f85e20d4d4e.png","UrlLink":"lechon","Location":{"Latitude":14.5904501856815,"Longitude":120.982667994439},"OrderBy":72308},{"FId":"331-1","Label":"Lumpia","EntityId":331,"EntityType":1,"Image":"/images/dishes/75e298620e6c47cea6a0b391f89249b6.png","UrlLink":"lumpia","Location":{"Latitude":14.5906135101731,"Longitude":120.980506015958},"OrderBy":34200},{"FId":"332-1","Label":"Sinigang","EntityId":332,"EntityType":1,"Image":"/images/dishes/e7d3c75ef5134fa48e99548787beba4e.png","UrlLink":"sinigang","Location":{"Latitude":14.5911858837232,"Longitude":120.982982186137},"OrderBy":34260},{"FId":"333-1","Label":"Ceviche","EntityId":333,"EntityType":1,"Image":"/Images/Dishes/41411a8196774ca190e77e122e27ce1c.png","UrlLink":"ceviche","Location":{"Latitude":-12.0629223967612,"Longitude":-77.0365092540468},"OrderBy":417010},{"FId":"334-1","Label":"Papa a la Huancaína","EntityId":334,"EntityType":1,"Image":"/images/dishes/83d721fd3cbd4d36a3a6e546dbcef3de.png","UrlLink":"papa-a-la-huancaina","Location":{"Latitude":-12.0802656649191,"Longitude":-75.1998143409508},"OrderBy":13200},{"FId":"335-1","Label":"Hákarl","EntityId":335,"EntityType":1,"Image":"/images/dishes/43fa1344f5e64c9c9f53693fda159243.png","UrlLink":"hakarl","Location":{"Latitude":64.144681536401,"Longitude":-21.9406329927582},"OrderBy":12060},{"FId":"336-1","Label":"Thorramatur","EntityId":336,"EntityType":1,"Image":"/images/dishes/f9036c0386144f23827acedc7e533a5d.png","UrlLink":"thorramatur","Location":{"Latitude":64.1458164441227,"Longitude":-21.9456537187349},"OrderBy":12060},{"FId":"337-1","Label":"Curry Paste","EntityId":337,"EntityType":1,"Image":"/images/dishes/76356256bf84464e8c57414b7b789186.png","UrlLink":"currypaste","Location":{"Latitude":13.7515361913393,"Longitude":100.493683140498},"OrderBy":0},{"FId":"338-1","Label":"Pad Thai","EntityId":338,"EntityType":1,"Image":"/Images/Dishes/2c84eb3515b04efebb125f2c7d6221e7.png","UrlLink":"pad-thai","Location":{"Latitude":13.7514949567023,"Longitude":100.500070231109},"OrderBy":164317},{"FId":"339-1","Label":"Roast Lamb with Laver Sauce","EntityId":339,"EntityType":1,"Image":"/images/dishes/a6346f7e98a2428ab5dba911330b0375.png","UrlLink":"roast-lamb-with-laver-sauce","Location":{"Latitude":51.4818294719125,"Longitude":-3.17839875604052},"OrderBy":0},{"FId":"340-1","Label":"Tom kha gai","EntityId":340,"EntityType":1,"Image":"/Images/Dishes/1720bfcf6aa748f3b4041698478660bb.png","UrlLink":"tom-kha-gai","Location":{"Latitude":18.790324062184439,"Longitude":98.988128933251957},"OrderBy":22600},{"FId":"341-1","Label":"Tom yum","EntityId":341,"EntityType":1,"Image":"/images/dishes/4ceebb85d5f242b6b430129ec3444c0b.png","UrlLink":"tom-yum","Location":{"Latitude":13.7579890422311,"Longitude":100.50917302079},"OrderBy":120030},{"FId":"342-1","Label":"Cawl","EntityId":342,"EntityType":1,"Image":"/Images/Dishes/36a3cdfa20344ac3a6b3912fa3ef3608.png","UrlLink":"cawl","Location":{"Latitude":51.4820730463763,"Longitude":-3.17914406177282},"OrderBy":22200},{"FId":"343-1","Label":"Poi","EntityId":343,"EntityType":1,"Image":"/Images/Dishes/48d9cf73a8474a4195553a4529b94a3a.png","UrlLink":"poi","Location":{"Latitude":21.30238214118,"Longitude":-157.853624862856},"OrderBy":9600},{"FId":"344-1","Label":"Pulagam","EntityId":344,"EntityType":1,"Image":"/Images/Dishes/c442960579ea4d3fb79cb37f938c3a7e.png","UrlLink":"pulagam","Location":{"Latitude":17.3604833042159,"Longitude":78.4666819192442},"OrderBy":0},{"FId":"345-1","Label":"Pastel de Chaves","EntityId":345,"EntityType":1,"Image":"/images/dishes/9d34f1b3a23a42d09d7143c14cd4b6d7.png","UrlLink":"pastel-de-chaves","Location":{"Latitude":41.7411672080771,"Longitude":-7.47213119721444},"OrderBy":22200},{"FId":"347-1","Label":"Mämmi","EntityId":347,"EntityType":1,"Image":"/Images/Dishes/64157c940e4e4188aa9eeb6bca66be79.png","UrlLink":"mammi","Location":{"Latitude":60.1674756374787,"Longitude":24.9420730260718},"OrderBy":1200},{"FId":"348-1","Label":"Tepertős pogácsa","EntityId":348,"EntityType":1,"Image":"/images/dishes/ad8e1e348d004ff6b73fc141de38171a.png","UrlLink":"tepertos-pogacsa","Location":{"Latitude":47.498206802765,"Longitude":19.050098067108},"OrderBy":0},{"FId":"349-1","Label":"Belokranjska pogača","EntityId":349,"EntityType":1,"Image":"/Images/Dishes/066974b24b5c4ecbb7a588fe32397e33.png","UrlLink":"belokranjska-pogaca","Location":{"Latitude":45.569413584307654,"Longitude":15.192719107226557},"OrderBy":10400},{"FId":"350-1","Label":"Ensaïmada de Mallorca","EntityId":350,"EntityType":1,"Image":"/images/dishes/a35c351958e24c8299c6d1e3c0747950.png","UrlLink":"ensaimada-de-mallorca","Location":{"Latitude":39.5700090225986,"Longitude":2.65034528908598},"OrderBy":26320},{"FId":"351-1","Label":"Mantecadas de Astorga","EntityId":351,"EntityType":1,"Image":"/Images/Dishes/8b3cda8ab6094a2c8b7fa0faa9394f98.png","UrlLink":"mantecadas-de-astorga","Location":{"Latitude":42.4553010067494,"Longitude":-6.05294837607808},"OrderBy":0},{"FId":"352-1","Label":"Mantecados de Estepa","EntityId":352,"EntityType":1,"Image":"/Images/Dishes/35fb7b4021db4f0885f5f5ea5fdff26c.png","UrlLink":"mantecados-de-estepa","Location":{"Latitude":37.2930141049368,"Longitude":-4.87804665605344},"OrderBy":0},{"FId":"353-1","Label":"Panellets","EntityId":353,"EntityType":1,"Image":"/Images/Dishes/5f25b9be754144e191ded41adacaa308.png","UrlLink":"panellets","Location":{"Latitude":41.3833212663433,"Longitude":2.17837399155739},"OrderBy":0},{"FId":"354-1","Label":"Skånsk spettkaka","EntityId":354,"EntityType":1,"Image":"/Images/Dishes/d7a049f291e84c449796d6740ec3e5d8.png","UrlLink":"skansk-spettkaka","Location":{"Latitude":56.0290852818524,"Longitude":14.1570102750393},"OrderBy":0},{"FId":"355-1","Label":"Sobao pasiego","EntityId":355,"EntityType":1,"Image":"/Images/Dishes/2e22750fce774fbe9bb401ff3b136e5e.png","UrlLink":"sobao-pasiego","Location":{"Latitude":43.4624153195215,"Longitude":-3.81080346141547},"OrderBy":2400},{"FId":"356-1","Label":"Tarta de Santiago","EntityId":356,"EntityType":1,"Image":"/Images/Dishes/11f8cce7e00c490eacf538b00ca4f47d.png","UrlLink":"tarta-de-santiago","Location":{"Latitude":42.8800091972972,"Longitude":-8.54648232527295},"OrderBy":0},{"FId":"357-1","Label":"Plate Lunch","EntityId":357,"EntityType":1,"Image":"/Images/Dishes/11c99c6e86874590b996ad437b507dab.png","UrlLink":"plate-lunch","Location":{"Latitude":21.3042816587564,"Longitude":-157.858159482745},"OrderBy":29600},{"FId":"359-1","Label":"Chicago-Style Deep Dish Pizza","EntityId":359,"EntityType":1,"Image":"/images/dishes/25f45a4f4dbb41329ad7847b6c099aa9.png","UrlLink":"chicago-pizza","Location":{"Latitude":41.8312567426294,"Longitude":-87.7486422913592},"OrderBy":141420},{"FId":"360-1","Label":"Italian Beef","EntityId":360,"EntityType":1,"Image":"/Images/Dishes/a85241f91f6f4471b7e4f1297bac82a7.png","UrlLink":"italian-beef","Location":{"Latitude":41.837784296385,"Longitude":-87.7400085270079},"OrderBy":109400},{"FId":"361-1","Label":"Poronkäristys","EntityId":361,"EntityType":1,"Image":"/Images/Dishes/5a603a3d04a54638b520a533383b4e74.png","UrlLink":"poronkaristys","Location":{"Latitude":66.4973375332473,"Longitude":25.7208071152822},"OrderBy":27670},{"FId":"362-1","Label":"Sashimi","EntityId":362,"EntityType":1,"Image":"/Images/Dishes/5e16a76cd7604b57b28b1abefc8d2c7a.png","UrlLink":"sashimi","Location":{"Latitude":35.6828119614545,"Longitude":139.761108650718},"OrderBy":250600},{"FId":"363-1","Label":"Pavlova","EntityId":363,"EntityType":1,"Image":"/Images/Dishes/abf041efa6124365b25481d03b65c46a.png","UrlLink":"pavlova","Location":{"Latitude":-41.2908878340971,"Longitude":174.797975073119},"OrderBy":213600},{"FId":"364-1","Label":"Ramen","EntityId":364,"EntityType":1,"Image":"/Images/Dishes/e35d99d0270a4ca48d927483db846893.png","UrlLink":"ramen","Location":{"Latitude":35.6841419488596,"Longitude":139.763735373456},"OrderBy":1551706},{"FId":"365-1","Label":"Donburi","EntityId":365,"EntityType":1,"Image":"/Images/Dishes/34444932f4c3488d83a8437af5a2b824.png","UrlLink":"donburi","Location":{"Latitude":35.6846246524957,"Longitude":139.761029765191},"OrderBy":256230},{"FId":"366-1","Label":"Hernekeitto","EntityId":366,"EntityType":1,"Image":"/images/dishes/26685703e2a84be2b5d029df40ffec01.png","UrlLink":"hernekeitto","Location":{"Latitude":60.1669382694656,"Longitude":24.9426718822931},"OrderBy":5400},{"FId":"368-1","Label":"Israeli Salad","EntityId":368,"EntityType":1,"Image":"/Images/Dishes/3aa7e9b13a594134a38fbd3d73c019d5.png","UrlLink":"israeli-salad","Location":{"Latitude":31.7779200427825,"Longitude":35.2227063070474},"OrderBy":1800},{"FId":"369-1","Label":"Falafel","EntityId":369,"EntityType":1,"Image":"/images/dishes/abff042bc64d4e15b9443bbd531a5285.png","UrlLink":"falafel","Location":{"Latitude":31.7797401350027,"Longitude":35.2233854731099},"OrderBy":85850},{"FId":"370-1","Label":"Sushi","EntityId":370,"EntityType":1,"Image":"/Images/Dishes/e7da1186678e42fa81a8f46b842d91f2.png","UrlLink":"sushi","Location":{"Latitude":35.6834366971958,"Longitude":139.765143816226},"OrderBy":1324418},{"FId":"371-1","Label":"Curry","EntityId":371,"EntityType":1,"Image":"/images/dishes/8120dc68369f415bb0308e8f9d4e2205.png","UrlLink":"curry","Location":{"Latitude":28.6125581863995,"Longitude":77.2151025708196},"OrderBy":1217070},{"FId":"372-1","Label":"Pappu charu","EntityId":372,"EntityType":1,"Image":"/images/dishes/9a769d0d1b1449c88a22e72a3d86ee99.png","UrlLink":"pappu-charu","Location":{"Latitude":17.3611029894699,"Longitude":78.4743530912344},"OrderBy":0},{"FId":"373-1","Label":"Folar de Valpaços","EntityId":373,"EntityType":1,"Image":"/images/dishes/acf3e83f3b194d57bcdf6fe979b22701.png","UrlLink":"folar-de-valpacos","Location":{"Latitude":41.606788294617,"Longitude":-7.31085250202734},"OrderBy":0},{"FId":"374-1","Label":"Welsh Rarebit","EntityId":374,"EntityType":1,"Image":"/Images/Dishes/faf417c685c54322b4ccbae391dd781e.png","UrlLink":"welsh-rarebit","Location":{"Latitude":51.4813864538527,"Longitude":-3.17638390107149},"OrderBy":34830},{"FId":"375-1","Label":"Fårikål","EntityId":375,"EntityType":1,"Image":"/images/dishes/900a23cc1ee740379e004d27ce8c40e6.png","UrlLink":"farikal","Location":{"Latitude":59.9125859045745,"Longitude":10.7437845866718},"OrderBy":24600},{"FId":"376-1","Label":"Lutefisk","EntityId":376,"EntityType":1,"Image":"/images/dishes/c215b6cf119148f2970c024cbd463ce9.png","UrlLink":"lutefisk","Location":{"Latitude":59.9115415129616,"Longitude":10.7451578380059},"OrderBy":7680},{"FId":"377-1","Label":"Pizza Grandiosa","EntityId":377,"EntityType":1,"Image":"/images/dishes/f1c5c72d35844eb8ab42ca87ad2e2ebe.png","UrlLink":"pizza-grandiosa","Location":{"Latitude":59.9130366520031,"Longitude":10.7406433369982},"OrderBy":0},{"FId":"378-1","Label":"Pastel de Tentúgal","EntityId":378,"EntityType":1,"Image":"/images/dishes/9e78a33052514b1ead91be2843ff3cb0.png","UrlLink":"pastel-de-tentugal","Location":{"Latitude":40.2226986095515,"Longitude":-8.58334880449612},"OrderBy":10600},{"FId":"379-1","Label":"Colonial Goose","EntityId":379,"EntityType":1,"Image":"/images/dishes/05568a3bbb684042b30ecc58e7ebc204.png","UrlLink":"colonial-goose","Location":{"Latitude":-41.2908655139811,"Longitude":174.781669431546},"OrderBy":1400},{"FId":"380-1","Label":"Century Egg","EntityId":380,"EntityType":1,"Image":"/Images/Dishes/2e98e29984a84963b4098c901047a425.png","UrlLink":"century-egg","Location":{"Latitude":28.1851841216276,"Longitude":113.001199585282},"OrderBy":13800},{"FId":"383-1","Label":"Paniki","EntityId":383,"EntityType":1,"Image":"/images/dishes/87896cd8d7ba4657a74bcaca86b82aa7.png","UrlLink":"paniki","Location":{"Latitude":1.4901979529178,"Longitude":124.84090106369},"OrderBy":5000},{"FId":"384-1","Label":"Brunswick Stew","EntityId":384,"EntityType":1,"Image":"/images/dishes/081ba9322b75493daab30dd78004bfe9.png","UrlLink":"brunswick-stew","Location":{"Latitude":37.5389334666942,"Longitude":-77.4346868728201},"OrderBy":14400},{"FId":"385-1","Label":"BLT Sandwich","EntityId":385,"EntityType":1,"Image":"/Images/Dishes/07eb03eeca58477e94fa975842418c5a.png","UrlLink":"blt-sandwich","Location":{"Latitude":38.8952570221956,"Longitude":-77.0368160203491},"OrderBy":68400},{"FId":"386-1","Label":"Blue Moon","EntityId":386,"EntityType":1,"Image":"/Images/Dishes/5056fad45e4e4b94841a9f487c8dc9c2.png","UrlLink":"blue-moon","Location":{"Latitude":41.8719109965426,"Longitude":-87.6339427410661},"OrderBy":12800},{"FId":"387-1","Label":"Baked Idaho Potatoes","EntityId":387,"EntityType":1,"Image":"/images/dishes/b4f185395120408681a73fedd78722aa.png","UrlLink":"baked-idaho-potatoes","Location":{"Latitude":43.6190348258215,"Longitude":-116.197781127564},"OrderBy":9600},{"FId":"389-1","Label":"Flija","EntityId":389,"EntityType":1,"Image":"/Images/Dishes/c4f9d3244b044c3fb2176fb05752a020.png","UrlLink":"flija","Location":{"Latitude":41.3279751007173,"Longitude":19.8192729081876},"OrderBy":1200},{"FId":"390-1","Label":"Arsik","EntityId":390,"EntityType":1,"Image":"/images/dishes/985ba62e204d4808acfce68b2092a4bb.png","UrlLink":"arsik","Location":{"Latitude":3.59103163772457,"Longitude":98.6749648557356},"OrderBy":12800},{"FId":"391-1","Label":"Asinan","EntityId":391,"EntityType":1,"Image":"/images/dishes/5937b672d3cd44dcb38090bb4a2842da.png","UrlLink":"asinan","Location":{"Latitude":-6.38611822749876,"Longitude":106.825780290251},"OrderBy":26400},{"FId":"392-1","Label":"Babi guling","EntityId":392,"EntityType":1,"Image":"/images/dishes/f41d05f829754e68bb9729000b5b8dae.png","UrlLink":"babi-guling","Location":{"Latitude":-8.65366650034528,"Longitude":115.219600103974},"OrderBy":64000},{"FId":"393-1","Label":"Pork Tenderloin Sandwich","EntityId":393,"EntityType":1,"Image":"/images/dishes/ebb3057cead54a0183607e73fe938850.png","UrlLink":"pork-tenderloin","Location":{"Latitude":39.7699524429694,"Longitude":-86.1622586875733},"OrderBy":47600},{"FId":"394-1","Label":"Bakso","EntityId":394,"EntityType":1,"Image":"/images/dishes/fe197c7df3484bdfbd72a5efb421626b.png","UrlLink":"bakso","Location":{"Latitude":-6.17671694450037,"Longitude":106.826877274929},"OrderBy":187200},{"FId":"395-1","Label":"Kung Pao Chicken","EntityId":395,"EntityType":1,"Image":"/images/dishes/1c22d89b1a224ae2b858bf13a3b85873.png","UrlLink":"kung-pao-chicken","Location":{"Latitude":30.6750922206273,"Longitude":104.047646984185},"OrderBy":17000},{"FId":"396-1","Label":"Pampapato di Ferrara","EntityId":396,"EntityType":1,"Image":"/Images/Dishes/009bcb93e02f43409f4a869c80e587da.png","UrlLink":"pampapato-di-ferrara","Location":{"Latitude":44.8368866877742,"Longitude":11.6189787056759},"OrderBy":43200},{"FId":"397-1","Label":"Bolani","EntityId":397,"EntityType":1,"Image":"/images/dishes/10c6050c6c56489fb86ab176f38bfa10.png","UrlLink":"bolani","Location":{"Latitude":34.5260518608069,"Longitude":69.1776442748822},"OrderBy":5200},{"FId":"398-1","Label":"Cincinnati Chili","EntityId":398,"EntityType":1,"Image":"/images/dishes/d52a5e9bddb74b5f89bc628c5f85380f.png","UrlLink":"cincinnati-chili","Location":{"Latitude":39.1633472800337,"Longitude":-84.4585381647324},"OrderBy":50950},{"FId":"399-1","Label":"Peking Duck","EntityId":399,"EntityType":1,"Image":"/images/dishes/121e23f2204c43d39262d127d691e619.png","UrlLink":"peking-duck","Location":{"Latitude":39.9278759868936,"Longitude":116.387108979159},"OrderBy":187200},{"FId":"400-1","Label":"Barbecue","EntityId":400,"EntityType":1,"Image":"/Images/Dishes/a357da5ca0d34953b19fee4ad3804b69.png","UrlLink":"bbq","Location":{"Latitude":29.7601662665953,"Longitude":-95.3644961826912},"OrderBy":1202116},{"FId":"401-1","Label":"Betutu","EntityId":401,"EntityType":1,"Image":"/Images/Dishes/6f2fdbcb94aa4608b31520fc380e4d78.png","UrlLink":"betutu","Location":{"Latitude":-8.65307278390759,"Longitude":115.218800179801},"OrderBy":61640},{"FId":"402-1","Label":"Batagor","EntityId":402,"EntityType":1,"Image":"/images/dishes/379c6c1315684a81a33128475890a197.png","UrlLink":"batagor","Location":{"Latitude":-6.94928745417214,"Longitude":107.570217779896},"OrderBy":77000},{"FId":"403-1","Label":"Bakwan malang","EntityId":403,"EntityType":1,"Image":"/images/dishes/8b8ab3b0f74143f39fcc591ace1509c9.png","UrlLink":"bakwan-malang","Location":{"Latitude":-7.97999199929357,"Longitude":112.610014999579},"OrderBy":108200},{"FId":"404-1","Label":"Fried Chicken","EntityId":404,"EntityType":1,"Image":"/images/dishes/0a19728732d542928c743b6a46ff54b5.png","UrlLink":"fried-chicken","Location":{"Latitude":38.2018187592856,"Longitude":-84.8758642409841},"OrderBy":1184325},{"FId":"405-1","Label":"Pizza Strips","EntityId":405,"EntityType":1,"Image":"/images/dishes/692b94c2542149bbae462064d3cc25b0.png","UrlLink":"pizza-strips","Location":{"Latitude":41.8211722254384,"Longitude":-71.4149369900718},"OrderBy":10400},{"FId":"406-1","Label":"Sambal","EntityId":406,"EntityType":1,"Image":"/Images/Dishes/9db48420f07a457a887a8d98a672bc07.png","UrlLink":"sambal","Location":{"Latitude":-6.17349263425966,"Longitude":106.825781303008},"OrderBy":29000},{"FId":"407-1","Label":"Satay","EntityId":407,"EntityType":1,"Image":"/Images/Dishes/a7f53e69efe24e6484abb72dae77e866.png","UrlLink":"satay","Location":{"Latitude":-6.17544975867584,"Longitude":106.828026064723},"OrderBy":271240},{"FId":"408-1","Label":"Hot Brown","EntityId":408,"EntityType":1,"Image":"/Images/Dishes/b216eb4deb48416b9cc55330fd9d962a.png","UrlLink":"hot-brown","Location":{"Latitude":38.2543085012108,"Longitude":-85.759641788570235},"OrderBy":28650},{"FId":"409-1","Label":"Rendang","EntityId":409,"EntityType":1,"Image":"/Images/Dishes/c4bb54a60bd64e759e1aeb52b6d0d75b.png","UrlLink":"rendang","Location":{"Latitude":-0.9246888917787,"Longitude":100.360145020829},"OrderBy":137104},{"FId":"410-1","Label":"Nasi goreng","EntityId":410,"EntityType":1,"Image":"/Images/Dishes/bb0bea73f629455c8b78d9be4466413a.png","UrlLink":"nasi-goreng","Location":{"Latitude":-6.17739960343236,"Longitude":106.826875733943},"OrderBy":61400},{"FId":"411-1","Label":"Gulai","EntityId":411,"EntityType":1,"Image":"/images/dishes/a6b5776e80454f2789693bc737e1269a.png","UrlLink":"gulai","Location":{"Latitude":3.58819925038149,"Longitude":98.6733232697138},"OrderBy":22200},{"FId":"412-1","Label":"Tempeh","EntityId":412,"EntityType":1,"Image":"/images/dishes/e990706086a54ad5bb3e30ad89d979de.png","UrlLink":"tempeh","Location":{"Latitude":-6.17703846171278,"Longitude":106.826492961559},"OrderBy":17400},{"FId":"413-1","Label":"Trinxat","EntityId":413,"EntityType":1,"Image":"/Images/Dishes/59d71137ee3b4291b62619e4e7c19c3d.png","UrlLink":"trinxat","Location":{"Latitude":42.5065299830775,"Longitude":1.52015510567568},"OrderBy":1600},{"FId":"414-1","Label":"Muamba de galinha","EntityId":414,"EntityType":1,"Image":"/images/dishes/f25b03037d2a450ebbfef742488e3bbb.png","UrlLink":"muamba-de-galinha","Location":{"Latitude":-8.82880416373278,"Longitude":13.256756055516},"OrderBy":800},{"FId":"415-1","Label":"Yarpaq dolması","EntityId":415,"EntityType":1,"Image":"/images/dishes/9788913d738347679024284f39ef3086.png","UrlLink":"yarpaq-dolmas","Location":{"Latitude":40.3752211787312,"Longitude":49.8340456757631},"OrderBy":1200},{"FId":"416-1","Label":"Bangers and Mash","EntityId":416,"EntityType":1,"Image":"/images/dishes/53cb2ddec3e9473598b0f59448821840.png","UrlLink":"bangers-and-mash","Location":{"Latitude":51.5059286653431,"Longitude":-0.128117426541595},"OrderBy":17210},{"FId":"417-1","Label":"Huevos rancheros","EntityId":417,"EntityType":1,"Image":"/images/dishes/03ae8283f21b493ba53a792574da5136.png","UrlLink":"huevos-rancheros","Location":{"Latitude":19.4327773907527,"Longitude":-99.1320578197926},"OrderBy":26600},{"FId":"418-1","Label":"Brownies","EntityId":418,"EntityType":1,"Image":"/Images/Dishes/39620601d2824997b8951d1dbbfd72d3.png","UrlLink":"brownies","Location":{"Latitude":38.8972702318558,"Longitude":-77.0365770955988},"OrderBy":115400},{"FId":"419-1","Label":"Pork Chop Bun","EntityId":419,"EntityType":1,"Image":"/images/dishes/3d15ab95bdec461c991dbf3e04e69e29.png","UrlLink":"pork-chop-bun","Location":{"Latitude":22.2029970160383,"Longitude":113.545048004608},"OrderBy":61000},{"FId":"421-1","Label":"Bryndzové halušky","EntityId":421,"EntityType":1,"Image":"/images/dishes/2a7b006c4b804d14b6e5456da7bb1caa.png","UrlLink":"bryndzove-halusky","Location":{"Latitude":48.1531173192586,"Longitude":17.1099464720775},"OrderBy":48690},{"FId":"422-1","Label":"Candied Apples","EntityId":422,"EntityType":1,"Image":"/Images/Dishes/6e3af8cb26ff4d47b792ee2def7cc7aa.png","UrlLink":"candied-apples","Location":{"Latitude":40.7007865023531,"Longitude":-74.1700547186109},"OrderBy":0},{"FId":"423-1","Label":"Cobb Salad","EntityId":423,"EntityType":1,"Image":"/Images/Dishes/3ea022d7f9bd416dbb493fcf7aac0c3b.png","UrlLink":"cobb-salad","Location":{"Latitude":33.9924560073293,"Longitude":-118.179424009152},"OrderBy":37400},{"FId":"424-1","Label":"Gumbo","EntityId":424,"EntityType":1,"Image":"/images/dishes/0069b59c364e4f9b9ac2f7e9d3edac0d.png","UrlLink":"gumbo","Location":{"Latitude":30.4502356147851,"Longitude":-91.1537914575075},"OrderBy":157200},{"FId":"425-1","Label":"Shoofly Pie","EntityId":425,"EntityType":1,"Image":"/Images/Dishes/d0d957a9c88042d59e84001b2ef848f5.png","UrlLink":"shoofly-pie","Location":{"Latitude":40.2648258494447,"Longitude":-76.887926304462},"OrderBy":42400},{"FId":"426-1","Label":"Hainanese Chicken Rice","EntityId":426,"EntityType":1,"Image":"/images/dishes/ec0ef069deb14c48bfabd063cccb5a85.png","UrlLink":"hainanese-chicken-rice","Location":{"Latitude":1.2930141872867,"Longitude":103.853252184164},"OrderBy":47000},{"FId":"427-1","Label":"Conch Fritters","EntityId":427,"EntityType":1,"Image":"/Images/Dishes/c9512b857d964978bf8b39500247d608.png","UrlLink":"conch-fritters","Location":{"Latitude":25.0763574178029,"Longitude":-77.3390121869003},"OrderBy":45200},{"FId":"428-1","Label":"Farofa","EntityId":428,"EntityType":1,"Image":"/images/dishes/867fa0de341140118c39b1155e95b271.png","UrlLink":"farofa","Location":{"Latitude":-15.7978803805181,"Longitude":-47.8842180656437},"OrderBy":24000},{"FId":"429-1","Label":"Aush","EntityId":429,"EntityType":1,"Image":"/images/dishes/fce09a9e1c6a4ca9b709471c69a70de5.png","UrlLink":"aush","Location":{"Latitude":34.5256030261711,"Longitude":69.1768099947332},"OrderBy":0},{"FId":"431-1","Label":"Chopan kabob","EntityId":431,"EntityType":1,"Image":"/images/dishes/64c403a0824e4431a019af5aaf47f1f7.png","UrlLink":"chopan-kabob","Location":{"Latitude":34.525462997078,"Longitude":69.1756685202565},"OrderBy":3000},{"FId":"432-1","Label":"Shaobing","EntityId":432,"EntityType":1,"Image":"/images/dishes/613054dea4684cfeac85d848bf361c42.png","UrlLink":"bing","Location":{"Latitude":36.6497298097029,"Longitude":117.117792910459},"OrderBy":9000},{"FId":"433-1","Label":"MoonPie","EntityId":433,"EntityType":1,"Image":"/images/dishes/510859c02e8c4114ab20996aa8e7a727.png","UrlLink":"moonpie","Location":{"Latitude":35.0699227481383,"Longitude":-85.2502394375956},"OrderBy":3630},{"FId":"434-1","Label":"Pommes frites","EntityId":434,"EntityType":1,"Image":"/Images/Dishes/812a2bd27b54473e88a555e86e0d9c1d.png","UrlLink":"pommes-frites","Location":{"Latitude":50.8465950700797,"Longitude":4.35134554074371},"OrderBy":197680},{"FId":"435-1","Label":"New York City Bagels","EntityId":435,"EntityType":1,"Image":"/Images/Dishes/3a4b06cb5da54b6687e6fad41d46dd6c.png","UrlLink":"bagels","Location":{"Latitude":40.7503504483826,"Longitude":-73.9801504003389},"OrderBy":106200},{"FId":"436-1","Label":"Chelow kebab","EntityId":436,"EntityType":1,"Image":"/images/dishes/7ea6c56bd47f4ddda8e38e561ff2d5c3.png","UrlLink":"chelow-kebab","Location":{"Latitude":35.7001821430478,"Longitude":51.4020322403271},"OrderBy":22000},{"FId":"437-1","Label":"Whitebait Fritters","EntityId":437,"EntityType":1,"Image":"/images/dishes/1e7bba01b5964f60b029649cf40c6819.png","UrlLink":"whitebait-fritters","Location":{"Latitude":-41.2885856900359,"Longitude":174.775019344398},"OrderBy":73000},{"FId":"438-1","Label":"Bibimbap","EntityId":438,"EntityType":1,"Image":"/images/dishes/ae82b53971e8476684ed301bf4e21a4c.png","UrlLink":"bibimbap","Location":{"Latitude":37.5660027615402,"Longitude":126.982543020247},"OrderBy":16210},{"FId":"439-1","Label":"Bulgogi","EntityId":439,"EntityType":1,"Image":"/images/dishes/aa376b90aeec4faf80eb29095f40c4fa.png","UrlLink":"bulgogi","Location":{"Latitude":37.5653847624137,"Longitude":126.977456938111},"OrderBy":23800},{"FId":"440-1","Label":"Kimchi","EntityId":440,"EntityType":1,"Image":"/Images/Dishes/40dd1cc6c8f94df1b8d3875cb4bfb7d4.png","UrlLink":"kimchi","Location":{"Latitude":37.566053922303,"Longitude":126.98101639307},"OrderBy":39600},{"FId":"441-1","Label":"Empanadas","EntityId":441,"EntityType":1,"Image":"/images/dishes/ebda0bc28f4448209a9918b4f31f5396.png","UrlLink":"empanadas","Location":{"Latitude":42.8783679012016,"Longitude":-8.55540403876121},"OrderBy":169077},{"FId":"442-1","Label":"Churros","EntityId":442,"EntityType":1,"Image":"/Images/Dishes/c4200405b62d4c3db1836bd2d00c1905.png","UrlLink":"churros","Location":{"Latitude":40.4165984539224,"Longitude":-3.70118470716729},"OrderBy":144650},{"FId":"443-1","Label":"Gazpacho","EntityId":443,"EntityType":1,"Image":"/Images/Dishes/5d94b98018d1478bacca80bb5996ecdb.png","UrlLink":"gazpacho","Location":{"Latitude":37.3880752511288,"Longitude":-5.99371006246428},"OrderBy":78410},{"FId":"444-1","Label":"Kalbi","EntityId":444,"EntityType":1,"Image":"/Images/Dishes/30def00bbfdc4dc0a6a675b7b7261a21.png","UrlLink":"kalbi","Location":{"Latitude":37.566443875954,"Longitude":126.981508355703},"OrderBy":186200},{"FId":"445-1","Label":"Shepherd's Pie","EntityId":445,"EntityType":1,"Image":"/images/dishes/7db6081564fb4b02b43c20c7b661406a.png","UrlLink":"shepherds-pie","Location":{"Latitude":51.5073174747027,"Longitude":-0.12513529295627},"OrderBy":53020},{"FId":"446-1","Label":"Chimichurri","EntityId":446,"EntityType":1,"Image":"/images/dishes/bbf72817592e4871b3fd3d74e6053c48.png","UrlLink":"chimichurri","Location":{"Latitude":-33.9342453111731,"Longitude":-58.4925842285156},"OrderBy":45200},{"FId":"447-1","Label":"Wonton Noodles","EntityId":447,"EntityType":1,"Image":"/images/dishes/89221116d0784031a55641d4e89bc045.png","UrlLink":"wonton-noodles","Location":{"Latitude":23.1383483347205,"Longitude":113.295137015162},"OrderBy":412600},{"FId":"448-1","Label":"Nasi lemak","EntityId":448,"EntityType":1,"Image":"/Images/Dishes/c9aff4ab1c4744bd9e02628857100ea2.png","UrlLink":"nasi-lemak","Location":{"Latitude":3.15810310322068,"Longitude":101.696750481184},"OrderBy":56830},{"FId":"449-1","Label":"Chipa","EntityId":449,"EntityType":1,"Image":"/images/dishes/f777d1adda1d445cb0fe0e727e73ab94.png","UrlLink":"chipa","Location":{"Latitude":-25.2952325284463,"Longitude":-57.6334961573553},"OrderBy":6030},{"FId":"450-1","Label":"Blini","EntityId":450,"EntityType":1,"Image":"/images/dishes/d1ebb714077d4dadabb21f3f598445a6.png","UrlLink":"bliny","Location":{"Latitude":55.7477217687257,"Longitude":37.6259073084219},"OrderBy":51260},{"FId":"451-1","Label":"Apple Pie","EntityId":451,"EntityType":1,"Image":"/images/dishes/4585252c1cb34395b37d55c03242d5e1.png","UrlLink":"apple-pie","Location":{"Latitude":38.8952957388346,"Longitude":-77.0372465913929},"OrderBy":118800},{"FId":"453-1","Label":"Beef on Weck","EntityId":453,"EntityType":1,"Image":"/Images/Dishes/6d648ebd81804537ba1c96d7334e6f12.png","UrlLink":"beef-on-weck","Location":{"Latitude":42.8837401755601,"Longitude":-78.8802158645146},"OrderBy":49490},{"FId":"454-1","Label":"Naengmyeon","EntityId":454,"EntityType":1,"Image":"/Images/Dishes/9efd8a790cfd4d808e0fe17491228624.png","UrlLink":"naengmyeon","Location":{"Latitude":39.0194389990526,"Longitude":125.754690997829},"OrderBy":38800},{"FId":"455-1","Label":"Pastel de choclo","EntityId":455,"EntityType":1,"Image":"/images/dishes/63974a6da8af4d6d9c61bc19baed1c69.png","UrlLink":"pastel-de-choclo","Location":{"Latitude":-33.4396009885459,"Longitude":-70.6485734383623},"OrderBy":10800},{"FId":"456-1","Label":"Goat Water","EntityId":456,"EntityType":1,"Image":"/images/dishes/219ee7a7da424f84b7de2ca57a9b99aa.png","UrlLink":"goat-water","Location":{"Latitude":16.7984287154558,"Longitude":-62.2041087699426},"OrderBy":3200},{"FId":"457-1","Label":"Masgouf","EntityId":457,"EntityType":1,"Image":"/images/dishes/3e11b82796db445e957adce14e4f920e.png","UrlLink":"masgouf","Location":{"Latitude":33.3025448098602,"Longitude":44.3786852443831},"OrderBy":2800},{"FId":"458-1","Label":"Chinese Mitten Crab","EntityId":458,"EntityType":1,"Image":"/images/dishes/9cb9110c33d34b03b6ac18ca168c08c1.png","UrlLink":"shanghai-hairy-crab","Location":{"Latitude":31.2164521381411,"Longitude":121.436504918514},"OrderBy":20200},{"FId":"459-1","Label":"Beer Brats","EntityId":459,"EntityType":1,"Image":"/images/dishes/483087ba085d4c8e891aba972018586d.png","UrlLink":"beer-brats","Location":{"Latitude":43.0762324568024,"Longitude":-89.380391568892},"OrderBy":20000},{"FId":"460-1","Label":"Khachapuri","EntityId":460,"EntityType":1,"Image":"/images/dishes/f100f7a74309480ea6af64047c21ed82.png","UrlLink":"khachapuri","Location":{"Latitude":41.6926012231404,"Longitude":44.8032252572033},"OrderBy":43620},{"FId":"461-1","Label":"Pongal","EntityId":461,"EntityType":1,"Image":"/images/dishes/c3597111d8014c549bc85ee5b11225fa.png","UrlLink":"pongal","Location":{"Latitude":13.0801440754494,"Longitude":80.2834363931075},"OrderBy":14400},